WELL ID,WELL NAME,LICENCE,CONTRACTOR BA ID,CONTRACTOR NAME,RIG NUMBER,ACTIVITY DATE,FIELD CENTRE,BA ID,LICENSEE,NEW PROJECTED TOTAL DEPTH,ACTIVITY TYPE,DATE,ATS,ConvDF,Lat,Long,WEEK,MONTH,YEAR
02/15-32-036-03W4/0,SURGE ENERGY 102  PROVOST 15-32-36-3,499243,0Y52,Precision Drilling Corporation,145,30 Jan 2021 05:30:00 AM,Wainwright,0YK4,Surge Energy Inc.,,Drill To LD,2021-01-30,32036034,32036034,52.13567452,-110.3860374,4,1,2021.0
02/14-11-038-08W5/0,YANGARRA HZ 102 FERRIER 14-11-38-8,499214,A801,Stampede Drilling A Division Of Matrix Energy Technologi,5,29 Jan 2021 12:00:00 AM,Red Deer,0LN7,Yangarra Resources Corp.,,Drill To LD,2021-01-30,11038085,11038085,52.25354596,-115.0253763,4,1,2021.0
06/14-18-058-05W4/0,CNRL 14B LIND 14-18-58-5,498180,0Z41,Ensign Drilling Inc.,218,30 Jan 2021 06:00:00 AM,Bonnyville,0HE9,Canadian Natural Resources Limited,,Drill To LD,2021-01-30,18058054,18058054,54.01332889,-110.7229605,4,1,2021.0
02/13-34-061-26W4/0,RHE 100 WESTLOCK 13-34-61-26,499196,A1TW,Bonanza Drilling Inc.,4,28 Jan 2021 08:30:00 PM,St. Albert,A6W2,Rolling Hills Energy Ltd.,,Drill To LD,2021-01-30,34061264,34061264,54.31939142,-113.8005715,4,1,2021.0
00/05-11-061-04W6/0,TOURMALINE HZ KAKWA 5-11-61-4,499014,0Y52,Precision Drilling Corporation,531,29 Jan 2021 02:00:00 PM,Grande Prairie,A573,Tourmaline Oil Corp.,,Drill To LD,2021-01-30,11061046,11061046,54.26134727,-118.47513,4,1,2021.0
AA/09-03-070-04W4/0,CVE B9 FISHER 9-3-70-4,498772,A57H,Predator Drilling Inc.,144,29 Jan 2021 06:00:00 PM,Bonnyville,A5D4,Cenovus Energy Inc.,,Drill To LD,2021-01-30,3070044,3070044,55.03149217,-110.5141798,4,1,2021.0
02/13-36-071-09W6/0,OVV HZ 102 WEMBLEY 13-36-71-9,498698,0Y52,Precision Drilling Corporation,535,29 Jan 2021 10:45:00 PM,Grande Prairie,0026,Ovintiv Canada ULC,,Drill To LD,2021-01-30,36071096,36071096,55.19234259,-119.2309926,4,1,2021.0
00/09-26-074-25W4/0,HWX MARTENH 9-26-74-25,498850,A08C,Savanna Drilling Corp.,437,29 Jan 2021 08:48:00 AM,St. Albert,A8DL,Headwater Exploration Inc.,,Drill To LD,2021-01-30,26074254,26074254,55.43911772,-113.7246581,4,1,2021.0
02/07-36-078-13W6/0,BIR 14-6 HZ 102 PCOUPES 7-36-78-13,499048,0Y52,Precision Drilling Corporation,226,29 Jan 2021 08:09:00 PM,Grande Prairie,A12R,Birchcliff Energy Ltd.,,Resumption,2021-01-30,36078136,36078136,55.80309179,-119.8621707,4,1,2021.0
AA/09-07-093-09W4/0,SYNCRUDE 108N01 9-7-93-9,497115,0Y80,Boart Longyear Canada,41,30 Jan 2021 04:00:00 AM,Bonnyville,0362,Syncrude Canada Ltd.,,Drill To LD,2021-01-30,7093094,7093094,57.05350282,-111.4277301,4,1,2021.0
AB/09-20-093-09W4/0,SYNCRUDE 144N01 9-20-93-9,497160,0Y80,Boart Longyear Canada,37,29 Jan 2021 10:30:00 PM,Bonnyville,0362,Syncrude Canada Ltd.,,Drill To LD,2021-01-30,20093094,20093094,57.08259388,-111.4009027,4,1,2021.0
AB/13-21-093-09W4/0,SYNCRUDE 067N01 13-21-93-9,497178,0Y80,Boart Longyear Canada,32,30 Jan 2021 02:00:00 AM,Bonnyville,0362,Syncrude Canada Ltd.,,Drill To LD,2021-01-30,21093094,21093094,57.08259576,-111.3740827,4,1,2021.0
AC/07-01-093-10W4/0,SYNCRUDE 143N01 7-1-93-10,497159,0Y80,Boart Longyear Canada,41,29 Jan 2021 02:30:00 PM,Bonnyville,0362,Syncrude Canada Ltd.,,Drill To LD,2021-01-30,1093104,1093104,57.03904067,-111.4545635,4,1,2021.0
AA/07-14-093-10W4/0,SYNCRUDE 29ROVCH194237L01 7-14-93-10,493270,0Y80,Boart Longyear Canada,47,30 Jan 2021 04:30:00 AM,Bonnyville,0362,Syncrude Canada Ltd.,,Drill To LD,2021-01-30,14093104,14093104,57.06813866,-111.4813998,4,1,2021.0
AB/09-14-093-10W4/0,SYNCRUDE 084N01 9-14-93-10,497082,0Y80,Boart Longyear Canada,47,29 Jan 2021 11:00:00 AM,Bonnyville,0362,Syncrude Canada Ltd.,,Drill To LD,2021-01-30,14093104,14093104,57.06813866,-111.4813998,4,1,2021.0
00/13-17-022-17W4/0,TXNE 13D-9 HZ COUNTESS 13-17-22-17,497622,0Y52,Precision Drilling Corporation,239,18 Jan 2021 12:45:00 PM,Midnapore,A7NW,Torxen Energy Ltd.,,Drill To LD,2021-01-18,17022174,17022174,50.87049427,-112.3130406,3,1,2021.0
00/12-10-051-16W5/0,CVE 100 HZ EDSON 12-10-51-16,498506,0Z41,Ensign Drilling Inc.,557,17 Jan 2021 08:00:00 PM,Drayton Valley,A5D4,Cenovus Energy Inc.,,Drill To LD,2021-01-18,10051165,10051165,53.38843159,-116.2618518,3,1,2021.0
00/12-10-051-16W5/0,CVE 100 HZ EDSON 12-10-51-16,498506,0Z41,Ensign Drilling Inc.,557,17 Jan 2021 08:00:00 PM,Drayton Valley,A5D4,Cenovus Energy Inc.,,Drill To LD,2021-01-18,10051165,10051165,53.38843159,-116.2618518,3,1,2021.0
00/03-05-063-05W6/0,OUC HZ KAKWA 3-5-63-5,498275,A6PR,Nabors Drilling Canada Limited,70,18 Jan 2021 04:30:00 AM,Grande Prairie,A2DE,ORLEN Upstream Canada Ltd.,,Drill To LD,2021-01-18,5063056,5063056,54.42168662,-118.7051939,3,1,2021.0
00/04-26-064-02W6/0,VELVET HZ KARR 4-26-64-2,499042,A08C,Savanna Drilling Corp.,639,17 Jan 2021 11:30:00 PM,Grande Prairie,A5YK,Velvet Energy Ltd.,,Drill To LD,2021-01-18,26064026,26064026,54.56703032,-118.1766517,3,1,2021.0
00/09-04-075-25W4/0,DELTASTREAM MARTENH 9-4-75-25,498833,A2CL,Komat Drilling Ltd.,3,17 Jan 2021 11:30:00 PM,St. Albert,A6YA,Deltastream Energy Corporation,,Set Surface,2021-01-18,4075254,4075254,55.46818763,-113.8097717,3,1,2021.0
AB/05-28-076-05W4/0,CVE C5 HARDY 5-28-76-5,498391,0Y52,Precision Drilling Corporation,171,17 Jan 2021 08:20:00 PM,Bonnyville,A5D4,Cenovus Energy Inc.,,Drill To LD,2021-01-18,28076054,28076054,55.61363569,-110.7044933,3,1,2021.0
13/02-16-076-06W4/0,CVE G05P09 LEISMER 2-16-76-6,499059,0Z41,Ensign Drilling Inc.,141,18 Jan 2021 07:21:00 AM,Bonnyville,A5D4,Cenovus Energy Inc.,,Set Surface,2021-01-18,16076064,16076064,55.58456271,-110.8597761,3,1,2021.0
02/12-13-076-07W5/0,TAC 12-18 HZ 102 NIPISI 12-13-76-7,499138,0Y52,Precision Drilling Corporation,152,18 Jan 2021 02:15:00 PM,St. Albert,A5TT,Tamarack Acquisition Corp.,,Drill To LD,2021-01-18,13076075,13076075,55.58490508,-114.9329088,3,1,2021.0
11/04-29-077-05W4/0,MEG AH16P HARDY 4-29-77-5,498953,0Y55,Akita Drilling Ltd.,27,17 Jan 2021 09:45:00 PM,Bonnyville,0Z9C,MEG Energy Corp.,,Drill To LD,2021-01-18,29077054,29077054,55.70089651,-110.7303741,3,1,2021.0
13/04-29-077-05W4/0,MEG AH17P HARDY 4-29-77-5,498955,0Y55,Akita Drilling Ltd.,27,18 Jan 2021 03:00:00 PM,Bonnyville,0Z9C,MEG Energy Corp.,,Drill To LD,2021-01-18,29077054,29077054,55.70089651,-110.7303741,3,1,2021.0
02/16-14-079-09W6/0,LONGSHORE HZ 100 GORD 16-14-79-9,499010,0Z41,Ensign Drilling Inc.,T420,18 Jan 2021 04:30:00 AM,Grande Prairie,A76W,Longshore Resources Ltd.,,Drill To LD,2021-01-18,14079096,14079096,55.84715837,-119.2792822,3,1,2021.0
AA/16-23-093-10W4/0,SYNCRUDE 29ROVCH194142L0 16-23-93-10,493256,0Y80,Boart Longyear Canada,41,17 Jan 2021 10:00:00 PM,Bonnyville,0362,Syncrude Canada Ltd.,,Drill To LD,2021-01-18,23093104,23093104,57.08259286,-111.4814072,3,1,2021.0
AB/10-24-093-10W4/0,SYNCRUDE 068N01 10-24-93-10,497179,0Y80,Boart Longyear Canada,47,18 Jan 2021 01:30:00 PM,Bonnyville,0362,Syncrude Canada Ltd.,,Drill To LD,2021-01-18,24093104,24093104,57.08259748,-111.4545408,3,1,2021.0
AB/08-34-093-10W4/0,SYNCRUDE 29ROVCH194301L01 8-34-93-10,493340,0Y80,Boart Longyear Canada,47,18 Jan 2021 12:00:00 AM,Bonnyville,0362,Syncrude Canada Ltd.,,Drill To LD,2021-01-18,34093104,34093104,57.11171402,-111.5082104,3,1,2021.0
02/06-15-095-06W4/0,SUNCOR P131P8 FIREBAG 6-15-95-6,497860,A6PR,Nabors Drilling Canada Limited,102,18 Jan 2021 04:00:00 PM,Bonnyville,0054,Suncor Energy Inc.,,Resumption,2021-01-18,15095064,15095064,57.24275071,-110.8735294,3,1,2021.0
AB/01-19-095-06W4/0,SUNCOR FIREBAG 1-19-95-6,498740,A1YG,Big Country Drilling Ltd.,18,18 Jan 2021 12:45:00 AM,Bonnyville,0054,Suncor Energy Inc.,,Drill To LD,2021-01-18,19095064,19095064,57.2571914,-110.9547522,3,1,2021.0
00/15-29-033-03W5/0,TIMBERROCK HZ HARME 15-29-33-3,499001,A6PR,Nabors Drilling Canada Limited,8,26 Jan 2021 01:56:00 AM,Red Deer,A16J,TimberRock Energy Corp.,,Drill To LD,2021-01-26,29033035,29033035,51.86058671,-114.3797866,4,1,2021.0
00/13-07-035-07W4/0,TAC 2-12 HZ PROVOST 13-7-35-7,498915,0GE9,Tempco Drilling Company Inc.,5,25 Jan 2021 11:45:00 PM,Wainwright,A5TT,Tamarack Acquisition Corp.,,Drill To LD,2021-01-26,7035074,7035074,51.99025368,-110.9812676,4,1,2021.0
02/13-07-038-08W5/0,TQN FERRIER 13-7-38-8,499041,A0KC,Horizon Drilling Inc.,23,26 Jan 2021 05:00:00 PM,Red Deer,A2TG,TAQA North Ltd.,,Drill To LD,2021-01-26,7038085,7038085,52.25345708,-115.1205864,4,1,2021.0
00/11-25-039-24W4/0,ENHANCEENERGY CLIVE 11-25-39-24,498861,0ZG2,Excalibur Drilling Ltd.,14,26 Jan 2021 03:30:00 AM,Red Deer,A216,Enhance Energy Inc.,,Drill To LD,2021-01-26,25039244,25039244,52.38337104,-113.315655,4,1,2021.0
00/04-30-040-09W5/0,TQN FERRIER 4-30-40-9,499156,A0KC,Horizon Drilling Inc.,19,26 Jan 2021 04:30:00 AM,Red Deer,A2TG,TAQA North Ltd.,,Drill To LD,2021-01-26,30040095,30040095,52.47226812,-115.2730913,4,1,2021.0
00/13-12-047-10W5/0,INPLAY OIL HZ PEMBINA 13-12-47-10,499274,A2EN,Ironhand Drilling Inc.,6,26 Jan 2021 02:48:00 PM,Drayton Valley,A6JK,InPlay Oil Corp.,,Drill To LD,2021-01-26,12047105,12047105,53.03957523,-115.3182448,4,1,2021.0
00/16-30-048-12W5/0,WESTBRICK HZ BRAZR 16-30-48-12,499086,A08C,Savanna Drilling Corp.,652,26 Jan 2021 12:00:00 AM,Drayton Valley,A5WB,Westbrick Energy Ltd.,,Drill To LD,2021-01-26,30048125,30048125,53.17061842,-115.7326152,4,1,2021.0
02/14-30-056-24W5/0,PEYTO WILD RIV 14-30-56-24,498046,0Z41,Ensign Drilling Inc.,T401,25 Jan 2021 10:30:00 PM,Drayton Valley,0YA2,Peyto Exploration & Development Corp.,,Drill To LD,2021-01-26,30056245,30056245,53.86841954,-117.544389,4,1,2021.0
00/12-05-061-18W5/0,TANGLE CREEK KAYBOBS 12-5-61-18,498730,0Y52,Precision Drilling Corporation,391,25 Jan 2021 11:45:00 PM,St. Albert,A5WA,Tangle Creek Energy Ltd.,,Drill To LD,2021-01-26,5061185,5061185,54.24688585,-116.6515859,4,1,2021.0
20/12-08-066-05W4/0,CNRL SC03 CAVERN LEMING 12-8-66-5,499099,0Y52,Precision Drilling Corporation,183,26 Jan 2021 03:00:00 PM,Bonnyville,0HE9,Canadian Natural Resources Limited,,Drill To LD,2021-01-26,8066054,8066054,54.69695178,-110.7117207,4,1,2021.0
02/04-16-072-08W6/0,CNRL 102 HZ WEMBLEY 4-16-72-8,492101,0Z41,Ensign Drilling Inc.,44,26 Jan 2021 04:00:00 PM,Grande Prairie,0HE9,Canadian Natural Resources Limited,,Drill To LD,2021-01-26,16072086,16072086,55.23608884,-119.1540573,4,1,2021.0
AB/05-20-076-05W4/0,CVE C5 HARDY 5-20-76-5,498386,0Y52,Precision Drilling Corporation,254,26 Jan 2021 04:46:00 PM,Bonnyville,A5D4,Cenovus Energy Inc.,,Drill To LD,2021-01-26,20076054,20076054,55.59899986,-110.7303732,4,1,2021.0
02/04-12-077-05W4/0,MEG DE6P HARDY 4-12-77-5,490955,0Y55,Akita Drilling Ltd.,25,26 Jan 2021 05:34:00 AM,Bonnyville,0Z9C,MEG Energy Corp.,,Resumption,2021-01-26,12077054,12077054,55.65714511,-110.6268493,4,1,2021.0
AB/13-12-093-10W4/0,SYNCRUDE 107N01 13-12-93-10,497114,0Y80,Boart Longyear Canada,41,26 Jan 2021 10:00:00 AM,Bonnyville,0362,Syncrude Canada Ltd.,,Drill To LD,2021-01-26,12093104,12093104,57.05349944,-111.454556,4,1,2021.0
AB/14-13-093-10W4/0,SYNCRUDE 075N01 14-13-93-10,497063,0Y80,Boart Longyear Canada,47,26 Jan 2021 01:00:00 PM,Bonnyville,0362,Syncrude Canada Ltd.,,Drill To LD,2021-01-26,13093104,13093104,57.0681388,-111.4545484,4,1,2021.0
AB/14-23-093-10W4/0,SYNCRUDE 063N01 14-23-93-10,497174,0Y80,Boart Longyear Canada,47,25 Jan 2021 07:30:00 PM,Bonnyville,0362,Syncrude Canada Ltd.,,Drill To LD,2021-01-26,23093104,23093104,57.08259286,-111.4814072,4,1,2021.0
00/03-31-094-05W4/0,SUNCOR DW23 FIREBAG 3-31-94-5,498867,0Y52,Precision Drilling Corporation,117,26 Jan 2021 10:00:00 AM,Bonnyville,0054,Suncor Energy Inc.,,Drill To LD,2021-01-26,31094054,31094054,57.19890501,-110.7839127,4,1,2021.0
02/09-13-034-08W4/0,TAC 7-19 HZ 102 PROVOST 9-13-34-8,498619,0GE9,Tempco Drilling Company Inc.,5,03 Jan 2021 04:15:00 AM,Wainwright,A5TT,Tamarack Acquisition Corp.,,Drill To LD,2021-01-03,13034084,13034084,51.91825559,-110.9973445,53,1,2021.0
00/01-33-044-07W4/0,SURGE ENERGY HZ WAINWR 1-33-44-7,496423,A8AF,Hertz & Paluck Energy Services Inc.,1,02 Jan 2021 01:30:00 PM,Wainwright,0YK4,Surge Energy Inc.,,Set Surface,2021-01-03,33044074,33044074,52.8360007,-110.9473444,53,1,2021.0
00/09-10-050-10W5/0,WHITECAP PEMBINA 9-10-50-10,496797,A0KC,Horizon Drilling Inc.,43,03 Jan 2021 01:00:00 PM,Drayton Valley,A5BE,Whitecap Resources Inc.,,Drill To LD,2021-01-03,10050105,10050105,53.30153922,-115.3669223,53,1,2021.0
03/03-05-052-21W5/0,PEYTO MEDLOD 3-5-52-21,498711,0Z41,Ensign Drilling Inc.,T438,02 Jan 2021 11:00:00 PM,Drayton Valley,0YA2,Peyto Exploration & Development Corp.,,Drill To LD,2021-01-03,5052215,5052215,53.46118706,-117.0478311,53,1,2021.0
00/12-01-056-21W5/0,PEYTO SUNDANCE 12-1-56-21,498801,0Z41,Ensign Drilling Inc.,432,02 Jan 2021 07:30:00 PM,Drayton Valley,0YA2,Peyto Exploration & Development Corp.,,Drill To LD,2021-01-03,1056215,1056215,53.81022579,-116.9744708,53,1,2021.0
00/03-30-059-25W5/0,TOURMALINE HZ LELAND 3-30-59-25,498838,0Y52,Precision Drilling Corporation,463,03 Jan 2021 07:30:00 AM,Drayton Valley,A573,Tourmaline Oil Corp.,,Set Surface,2021-01-03,30059255,30059255,54.13046421,-117.7262527,53,1,2021.0
02/12-28-062-04W6/0,7GEN HZ 102 KAKWA 12-28-62-4,498194,A0KC,Horizon Drilling Inc.,55,03 Jan 2021 05:00:00 AM,Grande Prairie,A54C,Seven Generations Energy Ltd.,,Drill To LD,2021-01-03,28062046,28062046,54.39235792,-118.5251185,53,1,2021.0
02/16-35-071-09W6/0,OVV HZ 102 WEMBLEY 16-35-71-9,498695,0Y52,Precision Drilling Corporation,535,02 Jan 2021 11:45:00 PM,Grande Prairie,0026,Ovintiv Canada ULC,,Drill To LD,2021-01-03,35071096,35071096,55.19235495,-119.2566215,53,1,2021.0
04/05-17-073-24W4/0,CNRL HZ 102 SMITH 5-17-73-24,498890,A801,Stampede Drilling A Division Of Matrix Energy Technologi,12,03 Jan 2021 12:00:00 AM,St. Albert,0HE9,Canadian Natural Resources Limited,,Drill To LD,2021-01-03,17073244,17073244,55.32277942,-113.6476666,53,1,2021.0
00/04-11-074-25W4/0,DELTASTREAM MARTENH 4-11-74-25,498315,A0KC,Horizon Drilling Inc.,51,03 Jan 2021 10:30:00 AM,St. Albert,A6YA,Deltastream Energy Corporation,,Resumption,2021-01-03,11074254,11074254,55.3953972,-113.7246573,53,1,2021.0
02/09-26-074-25W4/0,CVE 9-26 MARTENH 9-26-74-25,498906,A08C,Savanna Drilling Corp.,425,03 Jan 2021 05:45:00 AM,St. Albert,A5D4,Cenovus Energy Inc.,,Drill To LD,2021-01-03,26074254,26074254,55.43911772,-113.7246581,53,1,2021.0
15/01-25-077-06W4/0,MEG AF7I HARDY 1-25-77-6,498437,0Y52,Precision Drilling Corporation,140,03 Jan 2021 05:30:00 AM,Bonnyville,0Z9C,MEG Energy Corp.,,Drill To LD,2021-01-03,25077064,25077064,55.7008758,-110.7821391,53,1,2021.0
03/06-34-020-11W4/0,NORTH 40 HZ PRIN 6-34-20-11,499158,A1TW,Bonanza Drilling Inc.,7,08 Jan 2021 01:00:00 AM,Medicine Hat,A7E2,North 40 Resources Ltd.,,Drill To LD,2021-01-08,34020114,34020114,50.73951556,-111.4357719,1,1,2021.0
02/13-34-036-04W4/0,SURGE ENERGY 102 PROVOST 13-34-36-4,498898,0Y52,Precision Drilling Corporation,145,07 Jan 2021 01:30:00 PM,Wainwright,0YK4,Surge Energy Inc.,,Resumption,2021-01-08,34036044,34036044,52.13567299,-110.481268,1,1,2021.0
02/03-23-046-07W5/0,BONTERRA 102 HZ PEMBINA 3-23-46-7,499134,A2EN,Ironhand Drilling Inc.,1,07 Jan 2021 08:15:00 PM,Drayton Valley,0XZ4,Bonterra Energy Corp.,,Drill To LD,2021-01-08,23046075,23046075,52.98216549,-114.8958641,1,1,2021.0
00/13-09-055-22W5/0,CNRL HZ SUNDANCE 13-9-55-22,498789,0Z41,Ensign Drilling Inc.,419,07 Jan 2021 03:15:00 PM,Drayton Valley,0HE9,Canadian Natural Resources Limited,,Drill To LD,2021-01-08,9055225,9055225,53.73744457,-117.1973574,1,1,2021.0
00/05-31-059-04W4/0,CNRL 5C BEAVRDM 5-31-59-4,491201,0Z41,Ensign Drilling Inc.,218,08 Jan 2021 01:00:00 PM,Bonnyville,0HE9,Canadian Natural Resources Limited,,Drill To LD,2021-01-08,31059044,31059044,54.14424285,-110.5803365,1,1,2021.0
05/14-15-064-06W6/0,7GEN HZ 105 KAKWA 14-15-64-6,498926,0Y52,Precision Drilling Corporation,543,08 Jan 2021 01:00:00 AM,Grande Prairie,A54C,Seven Generations Energy Ltd.,,Drill To LD,2021-01-08,15064066,15064066,54.53806561,-118.8058884,1,1,2021.0
00/15-10-066-04W6/0,CNRL ET AL HZ KARR 15-10-66-4,494920,A801,Stampede Drilling A Division Of Matrix Energy Technologi,6,07 Jan 2021 08:30:00 PM,Grande Prairie,0HE9,Canadian Natural Resources Limited,,Drill To LD,2021-01-08,10066046,10066046,54.69792468,-118.5038917,1,1,2021.0
00/04-16-074-25W4/0,SPL 8-18 HZ  MARTENH 4-16-74-25,498598,0Y52,Precision Drilling Corporation,147,07 Jan 2021 08:00:00 PM,St. Albert,A7GR,Spur Petroleum Ltd.,,Drill To LD,2021-01-08,16074254,16074254,55.41003781,-113.7759221,1,1,2021.0
04/02-16-076-06W4/0,CVE G05I06 LEISMER 2-16-76-6,498963,0Z41,Ensign Drilling Inc.,141,07 Jan 2021 09:39:00 PM,Bonnyville,A5D4,Cenovus Energy Inc.,,Set Surface,2021-01-08,16076064,16076064,55.58456271,-110.8597761,1,1,2021.0
02/14-18-076-09W6/0,WHITECAP 102 VALHALLA 14-18-76-9,498859,0Y52,Precision Drilling Corporation,540,08 Jan 2021 12:30:00 AM,Grande Prairie,A5BE,Whitecap Resources Inc.,,Drill To LD,2021-01-08,18076096,18076096,55.58505027,-119.3708633,1,1,2021.0
14/01-25-077-06W4/0,MEG AF6I HARDY 1-25-77-6,498436,0Y52,Precision Drilling Corporation,140,07 Jan 2021 06:00:00 PM,Bonnyville,0Z9C,MEG Energy Corp.,,Drill To LD,2021-01-08,25077064,25077064,55.7008758,-110.7821391,1,1,2021.0
02/03-31-078-12W6/0,BIR 14-6 HZ 102 PCOUPE 3-31-78-12,499070,0Z41,Ensign Drilling Inc.,137,07 Jan 2021 10:30:00 PM,Grande Prairie,A12R,Birchcliff Energy Ltd.,,Set Surface,2021-01-08,31078126,31078126,55.80311365,-119.836321,1,1,2021.0
AB/05-30-093-09W4/0,SYNCRUDE 052N01 5-30-93-9,497138,0Y80,Boart Longyear Canada,41,07 Jan 2021 11:30:00 PM,Bonnyville,0362,Syncrude Canada Ltd.,,Drill To LD,2021-01-08,30093094,30093094,57.09721681,-111.4277129,1,1,2021.0
AC/12-30-093-09W4/0,SYNCRUDE 048N01 12-30-93-9,497134,0Y80,Boart Longyear Canada,41,08 Jan 2021 04:30:00 PM,Bonnyville,0362,Syncrude Canada Ltd.,,Drill To LD,2021-01-08,30093094,30093094,57.09721681,-111.4277129,1,1,2021.0
AC/08-31-093-09W4/0,SYNCRUDE 024N01 8-31-93-9,497074,A1YG,Big Country Drilling Ltd.,10,08 Jan 2021 09:00:00 AM,Bonnyville,0362,Syncrude Canada Ltd.,,Drill To LD,2021-01-08,31093094,31093094,57.11166693,-111.4277042,1,1,2021.0
AA/06-32-093-09W4/0,SYNCRUDE 027N01 6-32-93-9,497077,A1YG,Big Country Drilling Ltd.,6,08 Jan 2021 12:00:00 PM,Bonnyville,0362,Syncrude Canada Ltd.,,Drill To LD,2021-01-08,32093094,32093094,57.11167481,-111.4008908,1,1,2021.0
AA/14-32-093-09W4/0,SYNCRUDE 29ROVCH194022L01 1-1-94-10,493119,A1YG,Big Country Drilling Ltd.,6,07 Jan 2021 03:00:00 PM,Bonnyville,0362,Syncrude Canada Ltd.,,Drill To LD,2021-01-08,32093094,32093094,57.11167481,-111.4008908,1,1,2021.0
AC/07-25-093-10W4/0,SYNCRUDE 051N01 7-25-93-10,497137,0Y80,Boart Longyear Canada,47,08 Jan 2021 05:30:00 AM,Bonnyville,0362,Syncrude Canada Ltd.,,Drill To LD,2021-01-08,25093104,25093104,57.0972359,-111.4545294,1,1,2021.0
AA/05-01-094-10W4/0,SYNCRUDE 001N01 5-1-94-10,497052,A1YG,Big Country Drilling Ltd.,6,06 Jan 2021 08:00:00 PM,Bonnyville,0362,Syncrude Canada Ltd.,,Drill To LD,2021-01-08,1094104,1094104,57.12632758,-111.4544984,1,1,2021.0
02/02-15-095-06W4/0,SUNCOR P131P3 FIREBAG 2-15-95-6,497855,A6PR,Nabors Drilling Canada Limited,102,08 Jan 2021 04:30:00 PM,Bonnyville,0054,Suncor Energy Inc.,,Resumption,2021-01-08,15095064,15095064,57.24275071,-110.8735294,1,1,2021.0
00/02-18-016-13W4/0,TXNE 1A-20 HZ BANTRY 2-18-16-13,498919,A1TW,Bonanza Drilling Inc.,8,13 Jan 2021 06:00:00 PM,Medicine Hat,A7NW,Torxen Energy Ltd.,,Drill To LD,2021-01-14,18016134,18016134,50.34666352,-111.7689795,2,1,2021.0
02/07-16-035-03W4/0,RHE 102 PROVOST 7-16-35-3,499210,A57H,Predator Drilling Inc.,27,13 Jan 2021 02:30:00 PM,Wainwright,A6W2,Rolling Hills Energy Ltd.,,Set Surface,2021-01-14,16035034,16035034,52.00475302,-110.3622087,2,1,2021.0
03/16-12-035-08W4/0,TAC 4-12 HZ 103 PROVOST 16-12-35-8,498913,0GE9,Tempco Drilling Company Inc.,5,14 Jan 2021 07:30:00 AM,Wainwright,A5TT,Tamarack Acquisition Corp.,,Drill To LD,2021-01-14,12035084,12035084,51.99047369,-111.0050742,2,1,2021.0
04/14-14-046-07W5/0,BONTERRA 104 HZ PEMBINA 14-14-46-7,499135,A2EN,Ironhand Drilling Inc.,1,14 Jan 2021 03:00:00 PM,Drayton Valley,0XZ4,Bonterra Energy Corp.,,Drill To LD,2021-01-14,14046075,14046075,52.96770027,-114.8958734,2,1,2021.0
00/08-02-046-09W5/0,CVE 100 HZ PEMBINA 8-2-46-9,498423,0Z41,Ensign Drilling Inc.,449,13 Jan 2021 08:30:00 PM,Drayton Valley,A5D4,Cenovus Energy Inc.,,Drill To LD,2021-01-14,2046095,2046095,52.93805394,-115.186427,2,1,2021.0
00/05-23-048-06W4/0,HUSKY 3HZ S2 WILDMERE 5-23-48-6,496105,0Y52,Precision Drilling Corporation,197,14 Jan 2021 04:30:00 PM,Wainwright,0R46,Husky Oil Operations Limited,,Drill To LD,2021-01-14,23048064,23048064,53.15413957,-110.7609824,2,1,2021.0
00/16-24-058-02W6/0,TOURMALINE HZ SMOKY 16-24-58-2,498090,A6PR,Nabors Drilling Canada Limited,58,14 Jan 2021 04:01:00 PM,Drayton Valley,A573,Tourmaline Oil Corp.,,Set Surface,2021-01-14,24058026,24058026,54.02853811,-118.1489302,2,1,2021.0
03/16-15-064-06W6/0,7GEN HZ 103 KAKWA 16-15-64-6,498929,A6GJ,Dc Drilling Inc.,1,14 Jan 2021 03:15:00 AM,Grande Prairie,A54C,Seven Generations Energy Ltd.,,Drill To LD,2021-01-14,15064066,15064066,54.53806561,-118.8058884,2,1,2021.0
02/15-08-075-25W4/0,DELTASTREAM MARTENH 15-8-75-25,498829,A2CL,Komat Drilling Ltd.,3,13 Jan 2021 07:00:00 PM,St. Albert,A6YA,Deltastream Energy Corporation,,Set Surface,2021-01-14,8075254,8075254,55.48263795,-113.8356459,2,1,2021.0
AE/14-19-076-05W4/0,CVE A14 HARDY 14-19-76-5,498384,0Y52,Precision Drilling Corporation,171,14 Jan 2021 04:47:00 AM,Bonnyville,A5D4,Cenovus Energy Inc.,,Drill To LD,2021-01-14,19076054,19076054,55.59899293,-110.7562545,2,1,2021.0
05/08-16-076-06W4/0,CVE G05P02 LEISMER 8-16-76-6,498975,0Z41,Ensign Drilling Inc.,141,14 Jan 2021 10:21:00 AM,Bonnyville,A5D4,Cenovus Energy Inc.,,Set Surface,2021-01-14,16076064,16076064,55.58456271,-110.8597761,2,1,2021.0
07/10-20-077-05W4/0,MEG AH13P HARDY 10-20-77-5,498947,0Y55,Akita Drilling Ltd.,27,13 Jan 2021 11:30:00 PM,Bonnyville,0Z9C,MEG Energy Corp.,,Drill To LD,2021-01-14,20077054,20077054,55.68626283,-110.730374,2,1,2021.0
AA/13-19-093-09W4/0,SYNCRUDE 062N01 13-19-93-9,497173,A1YG,Big Country Drilling Ltd.,3,14 Jan 2021 12:15:00 PM,Bonnyville,0362,Syncrude Canada Ltd.,,Drill To LD,2021-01-14,19093094,19093094,57.08258595,-111.4277215,2,1,2021.0
AA/15-26-093-10W4/0,SYNCRUDE 29ROVCH194078L0 15-26-93-10,493243,0Y80,Boart Longyear Canada,41,14 Jan 2021 06:30:00 AM,Bonnyville,0362,Syncrude Canada Ltd.,,Drill To LD,2021-01-14,26093104,26093104,57.09722693,-111.4814114,2,1,2021.0
AB/09-27-093-10W4/0,SYNCRUDE 043N01 9-27-93-10,497130,0Y80,Boart Longyear Canada,47,14 Jan 2021 06:30:00 AM,Bonnyville,0362,Syncrude Canada Ltd.,,Drill To LD,2021-01-14,27093104,27093104,57.09725542,-111.5082348,2,1,2021.0
AA/05-35-093-10W4/0,SYNCRUDE 023N01 5-35-93-10,497073,A1YG,Big Country Drilling Ltd.,6,14 Jan 2021 07:15:00 AM,Bonnyville,0362,Syncrude Canada Ltd.,,Drill To LD,2021-01-14,35093104,35093104,57.11168027,-111.4813806,2,1,2021.0
02/01-31-094-05W4/0,SUNCOR QW24 FIREBAG 1-31-94-5,498866,0Y52,Precision Drilling Corporation,117,13 Jan 2021 10:26:00 PM,Bonnyville,0054,Suncor Energy Inc.,,Drill To LD,2021-01-14,31094054,31094054,57.19890501,-110.7839127,2,1,2021.0
03/15-35-034-08W4/0,TAC 13-35 HZ 103 PROVOST 15-35-34-8,499378,0GE9,Tempco Drilling Company Inc.,5,05 Feb 2021 07:15:00 PM,Wainwright,A5TT,Tamarack Acquisition Corp.,,Drill To LD,2021-02-06,35034084,35034084,51.96184194,-111.0209957,5,2,2021.0
00/05-25-049-13W5/0,MANCAL HZ PEMBINA 5-25-49-13,499235,A0KC,Horizon Drilling Inc.,50,05 Feb 2021 10:30:00 PM,Drayton Valley,0YT7,Mancal Energy Inc.,,Drill To LD,2021-02-06,25049135,25049135,53.25791656,-115.7570184,5,2,2021.0
00/04-21-056-24W5/0,PEYTO WILD RIV 4-21-56-24,497738,0Z41,Ensign Drilling Inc.,T401,06 Feb 2021 07:00:00 AM,Drayton Valley,0YA2,Peyto Exploration & Development Corp.,,Drill To LD,2021-02-06,21056245,21056245,53.85379388,-117.4948249,5,2,2021.0
00/16-13-063-24W4/0,RHE 100 ROCHSTR 16-13-63-24,499122,A57H,Predator Drilling Inc.,27,06 Feb 2021 11:00:00 AM,St. Albert,A6W2,Rolling Hills Energy Ltd.,,Set Surface,2021-02-06,13063244,13063244,54.44901923,-113.4840094,5,2,2021.0
02/16-15-064-06W6/0,7GEN HZ 102 KAKWA 16-15-64-6,498928,A6GJ,Dc Drilling Inc.,1E,06 Feb 2021 08:30:00 AM,Grande Prairie,A54C,Seven Generations Energy Ltd.,,Resumption,2021-02-06,15064066,15064066,54.53806561,-118.8058884,5,2,2021.0
03/09-33-076-13W6/0,AVN 103 HZ PCOUPES 9-33-76-13,499360,A0KC,Horizon Drilling Inc.,30,05 Feb 2021 11:15:00 PM,Grande Prairie,0TD9,Advantage Oil & Gas Ltd.,,Drill To LD,2021-02-06,33076136,33076136,55.62858077,-119.939754,5,2,2021.0
00/08-09-077-06W5/0,SPL 16-33 HZ NIPISI 8-9-77-6,498528,0GE9,Tempco Drilling Company Inc.,7,05 Feb 2021 06:00:00 PM,St. Albert,A7GR,Spur Petroleum Ltd.,,Resumption,2021-02-06,9077065,9077065,55.65755009,-114.8552424,5,2,2021.0
AB/08-05-093-09W4/0,SYNCRUDE 136N01 8-5-93-9,497152,0Y80,Boart Longyear Canada,32,05 Feb 2021 11:30:00 PM,Bonnyville,0362,Syncrude Canada Ltd.,,Drill To LD,2021-02-06,5093094,5093094,57.03905993,-111.400909,5,2,2021.0
AB/14-05-093-09W4/0,SYNCRUDE 129N01 14-5-93-9,497145,0Y80,Boart Longyear Canada,41,05 Feb 2021 09:00:00 PM,Bonnyville,0362,Syncrude Canada Ltd.,,Drill To LD,2021-02-06,5093094,5093094,57.03905993,-111.400909,5,2,2021.0
AB/07-06-093-09W4/0,SYNCRUDE 139N01 7-6-93-9,497155,0Y80,Boart Longyear Canada,37,06 Feb 2021 11:45:00 AM,Bonnyville,0362,Syncrude Canada Ltd.,,Drill To LD,2021-02-06,6093094,6093094,57.03905152,-111.4277344,5,2,2021.0
AB/12-09-093-09W4/0,SYNCRUDE 116N01 12-9-93-9,497123,0Y80,Boart Longyear Canada,47,06 Feb 2021 07:00:00 AM,Bonnyville,0362,Syncrude Canada Ltd.,,Drill To LD,2021-02-06,9093094,9093094,57.05351332,-111.3740828,5,2,2021.0
AA/03-01-097-07W4/0,IMP KGR21_545 3-1-97-7,499110,A1YG,Big Country Drilling Ltd.,16,05 Feb 2021 12:00:00 AM,Bonnyville,0007,Imperial Oil Resources Limited,,Set Surface,2021-02-06,1097074,1097074,57.38812096,-110.9818139,5,2,2021.0
00/10-28-015-14W4/0,TXNE 9A-34 HZ ALDSON 10-28-15-14,498860,A1TW,Bonanza Drilling Inc.,6,19 Jan 2021 04:30:00 PM,Medicine Hat,A7NW,Torxen Energy Ltd.,,Drill To LD,2021-01-19,28015144,28015144,50.28824352,-111.8605774,3,1,2021.0
00/03-04-036-08W4/0,KARVE HZ PROVOST 3-4-36-8,498887,0Y26,Terroco Drilling Company,8,18 Jan 2021 10:00:00 PM,Wainwright,A7BT,Karve Energy Inc.,,Resumption,2021-01-19,4036084,4036084,52.0630441,-111.0764399,3,1,2021.0
00/12-16-050-13W5/0,VEI HZ WESTPEM 12-16-50-13,498822,A2EN,Ironhand Drilling Inc.,7,18 Jan 2021 07:00:00 PM,Drayton Valley,A6FW,Vermilion Energy Inc.,,Drill To LD,2021-01-19,16050135,16050135,53.31614223,-115.8302053,3,1,2021.0
05/14-18-058-05W4/0,CNRL 14A LIND 14-18-58-5,498179,0Z41,Ensign Drilling Inc.,218,18 Jan 2021 06:00:00 PM,Bonnyville,0HE9,Canadian Natural Resources Limited,,Drill To LD,2021-01-19,18058054,18058054,54.01332889,-110.7229605,3,1,2021.0
00/08-15-066-05W6/0,PARA HZ KARR 8-15-66-5,495189,A08C,Savanna Drilling Corp.,689,19 Jan 2021 08:35:00 AM,Grande Prairie,0AW4,Paramount Resources Ltd.,,Set Surface,2021-01-19,15066056,15066056,54.71259132,-118.654949,3,1,2021.0
00/10-33-068-04W4/3,CNRL OBS PS72 RE FISHER 10-33-68-4,197878,A272,Xtreme Drilling and Coil Services Corp.,602,17 Jan 2021 11:30:00 AM,Bonnyville,0HE9,Canadian Natural Resources Limited,,Re-entry,2021-01-19,33068044,33068044,54.92958137,-110.5396101,3,1,2021.0
03/14-21-070-23W4/0,DELTASTREAM CANAL 14-21-70-23,498997,A2CL,Komat Drilling Ltd.,3,19 Jan 2021 06:00:00 AM,St. Albert,A6YA,Deltastream Energy Corporation,,Set Surface,2021-01-19,21070234,21070234,55.07485125,-113.4378554,3,1,2021.0
00/15-03-075-25W4/0,DELTASTREAM MARTENH 15-3-75-25,498496,A0KC,Horizon Drilling Inc.,14,18 Jan 2021 06:30:00 PM,St. Albert,A6YA,Deltastream Energy Corporation,,Resumption,2021-01-19,3075254,3075254,55.46818561,-113.7838947,3,1,2021.0
12/02-16-076-06W4/0,CVE G05P08 LEISMER 2-16-76-6,499058,0Z41,Ensign Drilling Inc.,141,18 Jan 2021 06:45:00 PM,Bonnyville,A5D4,Cenovus Energy Inc.,,Set Surface,2021-01-19,16076064,16076064,55.58456271,-110.8597761,3,1,2021.0
AC/01-24-076-06W4/0,CVE C16-13 B1 HARDY 1-24-76-6,498403,0Y52,Precision Drilling Corporation,254,19 Jan 2021 05:20:00 AM,Bonnyville,A5D4,Cenovus Energy Inc.,,Drill To LD,2021-01-19,24076064,24076064,55.59898063,-110.7821385,3,1,2021.0
05/04-30-077-05W4/0,MEG AH18P HARDY 4-30-77-5,498957,0Y55,Akita Drilling Ltd.,27,19 Jan 2021 10:45:00 AM,Bonnyville,0Z9C,MEG Energy Corp.,,Drill To LD,2021-01-19,30077054,30077054,55.70088882,-110.7562562,3,1,2021.0
AB/09-23-093-10W4/0,SYNCRUDE 065N01 9-23-93-10,497176,0Y80,Boart Longyear Canada,41,19 Jan 2021 02:30:00 AM,Bonnyville,0362,Syncrude Canada Ltd.,,Drill To LD,2021-01-19,23093104,23093104,57.08259286,-111.4814072,3,1,2021.0
AB/02-25-093-10W4/0,SYNCRUDE 059N01 2-25-93-10,497170,0Y80,Boart Longyear Canada,47,19 Jan 2021 06:30:00 AM,Bonnyville,0362,Syncrude Canada Ltd.,,Drill To LD,2021-01-19,25093104,25093104,57.0972359,-111.4545294,3,1,2021.0
00/09-10-049-25W4/0,NEP HZ LEDUC-WB 9-10-49-25,499141,0Z41,Ensign Drilling Inc.,32,23 Jan 2021 10:45:00 PM,St. Albert,A637,NEP Canada ULC,,Drill To LD,2021-01-24,10049254,10049254,53.21416492,-113.561782,3,1,2021.0
00/13-02-051-13W5/0,VEI HZ PEMBINA 13-2-51-13,498921,A2EN,Ironhand Drilling Inc.,9,23 Jan 2021 06:45:00 PM,Drayton Valley,A6FW,Vermilion Energy Inc.,,Drill To LD,2021-01-24,2051135,2051135,53.37394802,-115.795091,3,1,2021.0
00/02-22-055-22W5/0,PEYTO SUNDANCE 2-22-55-22,499169,0Z41,Ensign Drilling Inc.,438,24 Jan 2021 07:29:00 AM,Drayton Valley,0YA2,Peyto Exploration & Development Corp.,,Drill To LD,2021-01-24,22055225,22055225,53.76654651,-117.1725761,3,1,2021.0
00/04-01-056-21W5/0,PEYTO SUNDANCE 4-1-56-21,498802,0Z41,Ensign Drilling Inc.,432,24 Jan 2021 04:43:00 AM,Drayton Valley,0YA2,Peyto Exploration & Development Corp.,,Drill To LD,2021-01-24,1056215,1056215,53.81022579,-116.9744708,3,1,2021.0
04/04-01-072-09W6/0,OVV HZ 104 WEMBLEY 4-1-72-9,498689,0Y52,Precision Drilling Corporation,534,24 Jan 2021 03:15:00 PM,Grande Prairie,0026,Ovintiv Canada ULC,,Drill To LD,2021-01-24,1072096,1072096,55.20698006,-119.2310002,3,1,2021.0
00/08-35-074-25W4/0,HWX MARTENH 8-35-74-25,497524,A2CL,Komat Drilling Ltd.,3,23 Jan 2021 07:00:00 PM,St. Albert,A8DL,Headwater Exploration Inc.,,Set Surface,2021-01-24,35074254,35074254,55.45357068,-113.7246583,3,1,2021.0
03/12-25-076-07W5/0,TAC 13-26 HZ 102 NIPISI 12-25-76-7,499149,0Y52,Precision Drilling Corporation,185,24 Jan 2021 10:30:00 AM,St. Albert,A5TT,Tamarack Acquisition Corp.,,Drill To LD,2021-01-24,25076075,25076075,55.61399787,-114.9328795,3,1,2021.0
AC/14-29-093-09W4/0,SYNCRUDE 39N01 14-29-93-9,497107,A1YG,Big Country Drilling Ltd.,10,24 Jan 2021 03:30:00 PM,Bonnyville,0362,Syncrude Canada Ltd.,,Drill To LD,2021-01-24,29093094,29093094,57.09722471,-111.4008968,3,1,2021.0
AA/15-14-093-10W4/0,SYNCRUDE 074N01 15-14-93-10,497062,0Y80,Boart Longyear Canada,41,24 Jan 2021 12:30:00 AM,Bonnyville,0362,Syncrude Canada Ltd.,,Drill To LD,2021-01-24,14093104,14093104,57.06813866,-111.4813998,3,1,2021.0
02/10-12-043-12W5/0,TQN BRAZR 10-12-43-12,498842,0Y52,Precision Drilling Corporation,225,02 Jan 2021 08:30:00 AM,Drayton Valley,A2TG,TAQA North Ltd.,,Resumption,2021-01-02,12043125,12043125,52.69058379,-115.5973749,53,1,2021.0
02/03-15-061-04W6/0,TOURMALINE HZ KAKWA 3-15-61-4,499015,0Y52,Precision Drilling Corporation,531,01 Jan 2021 09:15:00 PM,Grande Prairie,A573,Tourmaline Oil Corp.,,Drill To LD,2021-01-02,15061046,15061046,54.27599194,-118.500119,53,1,2021.0
00/05-25-076-07W5/0,TAC 13-26 HZ NIPISI 5-25-76-7,499148,A2CL,Komat Drilling Ltd.,3,02 Jan 2021 06:00:00 AM,St. Albert,A5TT,Tamarack Acquisition Corp.,,Set Surface,2021-01-02,25076075,25076075,55.61399787,-114.9328795,53,1,2021.0
03/12-25-076-07W5/0,TAC 13-26 HZ 102 NIPISI 12-25-76-7,499149,A2CL,Komat Drilling Ltd.,3,02 Jan 2021 05:00:00 PM,St. Albert,A5TT,Tamarack Acquisition Corp.,,Set Surface,2021-01-02,25076075,25076075,55.61399787,-114.9328795,53,1,2021.0
02/16-34-076-07W5/0,TAC 13-26 HZ 102 NIPISI 16-34-76-7,499151,A2CL,Komat Drilling Ltd.,3,01 Jan 2021 07:30:00 PM,St. Albert,A5TT,Tamarack Acquisition Corp.,,Set Surface,2021-01-02,34076075,34076075,55.62844226,-114.984653,53,1,2021.0
02/14-13-079-12W6/0,BIR 5-7 HZ 102 PCOUPES 14-13-79-12,498992,0X84,Nabors Drilling Limited,77,02 Jan 2021 07:42:00 AM,Grande Prairie,A12R,Birchcliff Energy Ltd.,,Drill To LD,2021-01-02,13079126,13079126,55.84708672,-119.7231728,53,1,2021.0
02/15-18-034-09W4/0,TAC 16-24 HZ 102 PROVOST 15-18-34-9,498882,0GE9,Tempco Drilling Company Inc.,9,03 Jan 2021 10:30:00 PM,Wainwright,A5TT,Tamarack Acquisition Corp.,,Drill To LD,2021-01-04,18034094,18034094,51.91830747,-111.2572822,1,1,2021.0
00/11-07-041-10W5/0,PEYTO FERRIER 11-7-41-10,498511,A08C,Savanna Drilling Corp.,616,03 Jan 2021 08:15:00 PM,Red Deer,0YA2,Peyto Exploration & Development Corp.,,Drill To LD,2021-01-04,7041105,7041105,52.51582488,-115.4168706,1,1,2021.0
03/02-33-044-07W4/0,SURGE ENERGY HZ 103 WAINWR 2-33-44-7,496425,A8AF,Hertz & Paluck Energy Services Inc.,1,03 Jan 2021 02:00:00 PM,Wainwright,0YK4,Surge Energy Inc.,,Set Surface,2021-01-04,33044074,33044074,52.8360007,-110.9473444,1,1,2021.0
02/04-33-044-07W4/0,SURGE ENERGY HZ 102 WAINWR 4-33-44-7,498658,A77K,Star Valley Drilling Ltd.,102,03 Jan 2021 10:30:00 PM,Wainwright,0YK4,Surge Energy Inc.,,Drill To LD,2021-01-04,33044074,33044074,52.8360007,-110.9473444,1,1,2021.0
00/03-13-048-06W4/0,HUSKY 3HZ S1 WILDMERE 3-13-48-6,496104,0Y52,Precision Drilling Corporation,197,03 Jan 2021 11:00:00 PM,Wainwright,0R46,Husky Oil Operations Limited,,Drill To LD,2021-01-04,13048064,13048064,53.13973021,-110.7366306,1,1,2021.0
02/15-34-049-19W5/0,TOURMALINE 02HZ MINEHEAD 15-34-49-19,496803,A6PR,Nabors Drilling Canada Limited,16,03 Jan 2021 10:00:00 PM,Drayton Valley,A573,Tourmaline Oil Corp.,,Resumption,2021-01-04,34049195,34049195,53.27232899,-116.6831616,1,1,2021.0
05/12-22-050-26W4/0,NEP 105 HZ LEDUC-WB 12-22-50-26,489678,0Z41,Ensign Drilling Inc.,32,03 Jan 2021 07:15:00 PM,St. Albert,A637,NEP Canada ULC,,Drill To LD,2021-01-04,22050264,22050264,53.33045721,-113.7081489,1,1,2021.0
00/13-30-056-24W5/0,PEYTO WILD RIV 13-30-56-24,497978,0Z41,Ensign Drilling Inc.,T401,03 Jan 2021 09:15:00 PM,Drayton Valley,0YA2,Peyto Exploration & Development Corp.,,Drill To LD,2021-01-04,30056245,30056245,53.86841954,-117.544389,1,1,2021.0
00/07-30-059-25W5/0,TOURMALINE HZ LELAND 7-30-59-25,498840,0Y52,Precision Drilling Corporation,463,04 Jan 2021 04:15:00 PM,Drayton Valley,A573,Tourmaline Oil Corp.,,Set Surface,2021-01-04,30059255,30059255,54.13046421,-117.7262527,1,1,2021.0
00/08-27-066-04W6/0,PARA HZ KARR 8-27-66-4,498787,A5DR,Fox Drilling Inc.,3,04 Jan 2021 08:00:00 AM,Grande Prairie,0AW4,Paramount Resources Ltd.,,Resumption,2021-01-04,27066046,27066046,54.74165136,-118.5038919,1,1,2021.0
00/04-20-067-24W5/0,ARC HZ ANTEN 4-20-67-24,498606,0Y52,Precision Drilling Corporation,465,04 Jan 2021 07:00:00 AM,Grande Prairie,0G30,ARC Resources Ltd.,,Drill To LD,2021-01-04,20067245,20067245,54.81404694,-117.6115077,1,1,2021.0
02/15-03-075-25W4/0,DELTASTREAM MARTENH 15-3-75-25,498497,A0KC,Horizon Drilling Inc.,14,03 Jan 2021 11:30:00 AM,St. Albert,A6YA,Deltastream Energy Corporation,,Resumption,2021-01-04,3075254,3075254,55.46818561,-113.7838947,1,1,2021.0
AB/03-03-076-06W4/0,CVE B3-3 B3 KIRBY 3-3-76-6,498372,0Y52,Precision Drilling Corporation,254,04 Jan 2021 04:30:00 AM,Bonnyville,A5D4,Cenovus Energy Inc.,,Drill To LD,2021-01-04,3076064,3076064,55.55547208,-110.8338969,1,1,2021.0
00/10-36-078-13W6/0,BIR 14-6 HZ PCOUPES 10-36-78-13,499046,0Y52,Precision Drilling Corporation,226,04 Jan 2021 10:59:00 AM,Grande Prairie,A12R,Birchcliff Energy Ltd.,,Set Surface,2021-01-04,36078136,36078136,55.80309179,-119.8621707,1,1,2021.0
AA/15-31-093-09W4/0,SYNCRUDE 29ROVCH194025L01 15-31-93-9,493122,A1YG,Big Country Drilling Ltd.,10,04 Jan 2021 03:00:00 AM,Bonnyville,0362,Syncrude Canada Ltd.,,Drill To LD,2021-01-04,31093094,31093094,57.11166693,-111.4277042,1,1,2021.0
AC/16-36-093-10W4/0,SYNCRUDE 010N01 16-36-93-10,497056,A1YG,Big Country Drilling Ltd.,6,04 Jan 2021 04:00:00 AM,Bonnyville,0362,Syncrude Canada Ltd.,,Drill To LD,2021-01-04,36093104,36093104,57.11169363,-111.4545179,1,1,2021.0
09/14-10-095-06W4/0,SUNCOR P131P1 FIREBAG 14-10-95-6,496942,0X84,Nabors Drilling Limited,102,04 Jan 2021 10:45:00 AM,Bonnyville,0054,Suncor Energy Inc.,,Resumption,2021-01-04,10095064,10095064,57.22812066,-110.8735306,1,1,2021.0
00/13-01-035-08W4/0,TAC 2-12 HZ PROVOST 13-1-35-8,498918,0GE9,Tempco Drilling Company Inc.,5,28 Jan 2021 04:45:00 PM,Wainwright,A5TT,Tamarack Acquisition Corp.,,Drill To LD,2021-01-28,1035084,1035084,51.97600773,-111.0050864,4,1,2021.0
00/14-22-044-14W5/0,TOURMALINE HZ BRAZR 14-22-44-14,498725,0Z41,Ensign Drilling Inc.,T038,28 Jan 2021 02:23:00 PM,Drayton Valley,A573,Tourmaline Oil Corp.,,Resumption,2021-01-28,22044145,22044145,52.80700666,-115.9358437,4,1,2021.0
03/05-31-046-07W5/0,BONTERRA HZ 103 PEMBINA 5-31-46-7,499250,A2EN,Ironhand Drilling Inc.,1,28 Jan 2021 11:30:00 AM,Drayton Valley,0XZ4,Bonterra Energy Corp.,,Drill To LD,2021-01-28,31046075,31046075,53.01140189,-114.9924437,4,1,2021.0
AC/09-25-076-06W4/0,CVE B9-25 C9 HARDY 9-25-76-6,498404,0Y52,Precision Drilling Corporation,171,28 Jan 2021 12:00:00 PM,Bonnyville,A5D4,Cenovus Energy Inc.,,Drill To LD,2021-01-28,25076064,25076064,55.61361609,-110.7821387,4,1,2021.0
00/03-32-079-02W5/0,SPL 6-5 HZ GODIN 3-32-79-2,498999,0Y52,Precision Drilling Corporation,294,27 Jan 2021 11:30:00 PM,St. Albert,A7GR,Spur Petroleum Ltd.,,Drill To LD,2021-01-28,32079025,32079025,55.89076126,-114.2622126,4,1,2021.0
00/11-10-082-11W6/0,RIDGEBACK HZ BONANZA 11-10-82-11,499308,0ZG2,Excalibur Drilling Ltd.,11,28 Jan 2021 12:45:00 AM,Grande Prairie,A7G2,Ridgeback Resources Inc.,,Drill To LD,2021-01-28,10082116,10082116,56.09431271,-119.6186908,4,1,2021.0
AA/14-12-093-10W4/0,SYNCRUDE 102N01 14-12-93-10,497099,0Y80,Boart Longyear Canada,41,28 Jan 2021 12:00:00 AM,Bonnyville,0362,Syncrude Canada Ltd.,,Drill To LD,2021-01-28,12093104,12093104,57.05349944,-111.454556,4,1,2021.0
AB/03-13-093-10W4/0,SYNCRUDE 095N01 3-13-93-10,497092,0Y80,Boart Longyear Canada,47,27 Jan 2021 07:00:00 PM,Bonnyville,0362,Syncrude Canada Ltd.,,Drill To LD,2021-01-28,13093104,13093104,57.0681388,-111.4545484,4,1,2021.0
AA/04-35-093-10W4/0,SYNCRUDE 030N01 4-35-93-10,497079,0Y80,Boart Longyear Canada,32,28 Jan 2021 12:30:00 PM,Bonnyville,0362,Syncrude Canada Ltd.,,Drill To LD,2021-01-28,35093104,35093104,57.11168027,-111.4813806,4,1,2021.0
08/12-03-095-06W4/2,SUNCOR P17P3B FIREBAG 12-3-95-6,456430,0Y52,Precision Drilling Corporation,151,28 Jan 2021 06:30:00 AM,Bonnyville,0054,Suncor Energy Inc.,,Resumption,2021-01-28,3095064,3095064,57.21367117,-110.8735319,4,1,2021.0
00/16-08-015-14W4/0,TXNE 15C-16 HZ ALDSON 16-8-15-14,499087,A1TW,Bonanza Drilling Inc.,6,11 Jan 2021 03:00:00 PM,Medicine Hat,A7NW,Torxen Energy Ltd.,,Drill To LD,2021-01-11,8015144,8015144,50.24454604,-111.8835438,2,1,2021.0
00/13-36-034-03W4/0,RHE 100 PROVOST 13-36-34-3,496165,A57H,Predator Drilling Inc.,27,11 Jan 2021 05:00:00 PM,Wainwright,A6W2,Rolling Hills Energy Ltd.,,Set Surface,2021-01-11,36034034,36034034,51.96171461,-110.2885159,2,1,2021.0
00/01-13-035-08W4/0,TAC 4-12 HZ PROVOST 1-13-35-8,498914,0GE9,Tempco Drilling Company Inc.,5,11 Jan 2021 04:15:00 PM,Wainwright,A5TT,Tamarack Acquisition Corp.,,Drill To LD,2021-01-11,13035084,13035084,52.00510892,-111.005062,2,1,2021.0
00/04-14-035-09W4/0,KARVE HZ PROVOST 4-14-35-9,498826,A57H,Predator Drilling Inc.,9,11 Jan 2021 07:37:00 AM,Wainwright,A7BT,Karve Energy Inc.,,Set Surface,2021-01-11,14035094,14035094,52.00478774,-111.1717461,2,1,2021.0
02/12-31-059-04W4/0,CNRL 12C BEAVRDM 12-31-59-4,491204,0Z41,Ensign Drilling Inc.,218,11 Jan 2021 12:00:00 AM,Bonnyville,0HE9,Canadian Natural Resources Limited,,Drill To LD,2021-01-11,31059044,31059044,54.14424285,-110.5803365,2,1,2021.0
00/16-08-060-01W6/0,JUPITER HZ RESTHA 16-8-60-1,498465,A6PR,Nabors Drilling Canada Limited,127,11 Jan 2021 06:00:00 AM,Grande Prairie,A6X1,Jupiter Resources Inc.,,Resumption,2021-01-11,8060016,8060016,54.17408103,-118.1003347,2,1,2021.0
02/09-31-061-18W5/0,CHEVRON 102 HZ FOXCK 9-31-61-18,493784,0Z41,Ensign Drilling Inc.,770,10 Jan 2021 05:25:00 PM,St. Albert,0045,Chevron Canada Limited,,Drill To LD,2021-01-11,31061185,31061185,54.31951971,-116.6765861,2,1,2021.0
00/09-14-063-22W4/0,CRESTWYND HZ MEANOOK 9-14-63-22,499160,A2CL,Komat Drilling Ltd.,3,10 Jan 2021 07:34:00 PM,St. Albert,A7MT,Crestwynd Exploration Ltd.,,Set Surface,2021-01-11,14063224,14063224,54.44900323,-113.2069345,2,1,2021.0
02/10-14-063-22W4/0,CRESTWYND HZ MEANOOK 10-14-63-22,499159,A2CL,Komat Drilling Ltd.,3,10 Jan 2021 07:27:00 PM,St. Albert,A7MT,Crestwynd Exploration Ltd.,,Set Surface,2021-01-11,14063224,14063224,54.44900323,-113.2069345,2,1,2021.0
02/12-35-063-04W6/0,7GEN HZ 102 KAKWA 12-35-63-4,498580,A6PR,Nabors Drilling Canada Limited,17,11 Jan 2021 04:00:00 PM,Grande Prairie,A54C,Seven Generations Energy Ltd.,,Set Surface,2021-01-11,35063046,35063046,54.49428211,-118.4787021,2,1,2021.0
03/15-15-064-06W6/0,7GEN HZ 103 KAKWA 15-15-64-6,498927,A6GJ,Dc Drilling Inc.,1,11 Jan 2021 01:00:00 AM,Grande Prairie,A54C,Seven Generations Energy Ltd.,,Set Surface,2021-01-11,15064066,15064066,54.53806561,-118.8058884,2,1,2021.0
00/12-28-067-06W6/0,PARA HZ ELM 12-28-67-6,496896,A5DR,Fox Drilling Inc.,4,10 Jan 2021 10:13:00 PM,Grande Prairie,0AW4,Paramount Resources Ltd.,,Resumption,2021-01-11,28067066,28067066,54.82884756,-118.8396213,2,1,2021.0
AC/05-34-075-06W4/0,CVE D5 KIRBY 5-34-75-6,498399,0Y52,Precision Drilling Corporation,254,09 Jan 2021 08:00:00 AM,Bonnyville,A5D4,Cenovus Energy Inc.,,Drill To LD,2021-01-11,34075064,34075064,55.54083814,-110.8338966,2,1,2021.0
AC/10-19-076-05W4/0,CVE 2B10 HARDY 10-19-76-5,498382,0Y52,Precision Drilling Corporation,144,09 Jan 2021 05:00:00 AM,Bonnyville,A5D4,Cenovus Energy Inc.,,Drill To LD,2021-01-11,19076054,19076054,55.59899293,-110.7562545,2,1,2021.0
AD/10-19-076-05W4/0,CVE C10 HARDY 10-19-76-5,498383,0Y52,Precision Drilling Corporation,254,11 Jan 2021 06:00:00 AM,Bonnyville,A5D4,Cenovus Energy Inc.,,Drill To LD,2021-01-11,19076054,19076054,55.59899293,-110.7562545,2,1,2021.0
AD/02-30-076-05W4/0,CVE D2 HARDY 2-30-76-5,498396,0Y52,Precision Drilling Corporation,171,09 Jan 2021 07:15:00 AM,Bonnyville,A5D4,Cenovus Energy Inc.,,Drill To LD,2021-01-11,30076054,30076054,55.61362802,-110.7562541,2,1,2021.0
03/08-16-076-06W4/0,CVE G05I02 LEISMER 8-16-76-6,498959,0Z41,Ensign Drilling Inc.,141,11 Jan 2021 10:30:00 AM,Bonnyville,A5D4,Cenovus Energy Inc.,,Set Surface,2021-01-11,16076064,16076064,55.58456271,-110.8597761,2,1,2021.0
02/07-07-076-03W5/0,SPL 9-18 HZ MARTENH 7-7-76-3,499150,0Y52,Precision Drilling Corporation,294,11 Jan 2021 05:00:00 AM,St. Albert,A7GR,Spur Petroleum Ltd.,,Drill To LD,2021-01-11,7076035,7076035,55.57024894,-114.4412325,2,1,2021.0
12/01-25-077-06W4/0,MEG AF6P HARDY 1-25-77-6,498434,0Y52,Precision Drilling Corporation,140,11 Jan 2021 10:15:00 AM,Bonnyville,0Z9C,MEG Energy Corp.,,Drill To LD,2021-01-11,25077064,25077064,55.7008758,-110.7821391,2,1,2021.0
00/04-31-078-12W6/0,BIR 14-6 HZ PCOUPE 4-31-78-12,499068,0Z41,Ensign Drilling Inc.,137,09 Jan 2021 03:00:00 AM,Grande Prairie,A12R,Birchcliff Energy Ltd.,,Set Surface,2021-01-11,31078126,31078126,55.80311365,-119.836321,2,1,2021.0
03/08-36-078-13W6/0,BIR 14-6 HZ PCOUPES 8-36-78-13,499069,0Z41,Ensign Drilling Inc.,137,10 Jan 2021 07:30:00 AM,Grande Prairie,A12R,Birchcliff Energy Ltd.,,Drill To LD,2021-01-11,36078136,36078136,55.80309179,-119.8621707,2,1,2021.0
AA/05-20-093-09W4/0,SYNCRUDE 29ROVCH194175L01 5-20-93-9,493263,A1YG,Big Country Drilling Ltd.,3,10 Jan 2021 10:00:00 PM,Bonnyville,0362,Syncrude Canada Ltd.,,Drill To LD,2021-01-11,20093094,20093094,57.08259388,-111.4009027,2,1,2021.0
AA/11-29-093-09W4/0,SYNCRUDE 29ROVCH194098L01 11-29-93-9,493249,A1YG,Big Country Drilling Ltd.,6,11 Jan 2021 04:15:00 AM,Bonnyville,0362,Syncrude Canada Ltd.,,Drill To LD,2021-01-11,29093094,29093094,57.09722471,-111.4008968,2,1,2021.0
AC/14-25-093-10W4/0,SYNCRUDE 042N01 14-25-93-10,497110,0Y80,Boart Longyear Canada,41,11 Jan 2021 12:00:00 AM,Bonnyville,0362,Syncrude Canada Ltd.,,Drill To LD,2021-01-11,25093104,25093104,57.0972359,-111.4545294,2,1,2021.0
AB/15-25-093-10W4/0,SYNCRUDE 037N01 15-25-93-10,497105,0Y80,Boart Longyear Canada,47,10 Jan 2021 11:00:00 PM,Bonnyville,0362,Syncrude Canada Ltd.,,Drill To LD,2021-01-11,25093104,25093104,57.0972359,-111.4545294,2,1,2021.0
AA/09-26-093-10W4/0,SYNCRUDE 050N01 9-26-93-10,497136,0Y80,Boart Longyear Canada,41,11 Jan 2021 04:00:00 PM,Bonnyville,0362,Syncrude Canada Ltd.,,Drill To LD,2021-01-11,26093104,26093104,57.09722693,-111.4814114,2,1,2021.0
AB/06-36-093-10W4/0,SYNCRUDE 026N01 6-36-93-10,497076,0Y80,Boart Longyear Canada,47,11 Jan 2021 03:30:00 PM,Bonnyville,0362,Syncrude Canada Ltd.,,Drill To LD,2021-01-11,36093104,36093104,57.11169363,-111.4545179,2,1,2021.0
03/02-15-095-06W4/0,SUNCOR P131P4 FIREBAG 2-15-95-6,497856,A6PR,Nabors Drilling Canada Limited,102,10 Jan 2021 06:30:00 PM,Bonnyville,0054,Suncor Energy Inc.,,Drill To LD,2021-01-11,15095064,15095064,57.24275071,-110.8735294,2,1,2021.0
00/08-11-026-03W5/0,OUC HZ LOCHEND 8-11-26-3,498472,0Z41,Ensign Drilling Inc.,225,21 Jan 2021 01:30:00 AM,Midnapore,A2DE,ORLEN Upstream Canada Ltd.,,Drill To LD,2021-01-21,11026035,11026035,51.204966,-114.3040714,3,1,2021.0
02/02-29-036-03W4/0,SURGE ENERGY 102HZ PROVOST 2-29-36-3,499245,A8AF,Hertz & Paluck Energy Services Inc.,1,20 Jan 2021 04:00:00 PM,Wainwright,0YK4,Surge Energy Inc.,,Set Surface,2021-01-21,29036034,29036034,52.12119844,-110.3860556,3,1,2021.0
02/14-22-044-14W5/0,TOURMALINE 102 HZ BRAZR 14-22-44-14,499095,0Z41,Ensign Drilling Inc.,38,21 Jan 2021 12:45:00 PM,Drayton Valley,A573,Tourmaline Oil Corp.,,Resumption,2021-01-21,22044145,22044145,52.80700666,-115.9358437,3,1,2021.0
03/16-20-049-11W5/0,WHITECAP PEMBINA 16-20-49-11,499083,A0KC,Horizon Drilling Inc.,43,21 Jan 2021 06:00:00 AM,Drayton Valley,A5BE,Whitecap Resources Inc.,,Drill To LD,2021-01-21,20049115,20049115,53.24331665,-115.5620557,3,1,2021.0
02/16-30-049-12W5/0,MANCAL 102 HZ PEMBINA 16-30-49-12,498815,A0KC,Horizon Drilling Inc.,50,21 Jan 2021 09:00:00 AM,Drayton Valley,0YT7,Mancal Energy Inc.,,Drill To LD,2021-01-21,30049125,30049125,53.25792734,-115.7326644,3,1,2021.0
00/08-13-058-06W4/0,CNRL 8A LNDBRGH 8-13-58-6,494680,0Z41,Ensign Drilling Inc.,218,21 Jan 2021 01:30:00 PM,Bonnyville,0HE9,Canadian Natural Resources Limited,,Drill To LD,2021-01-21,13058064,13058064,54.01330476,-110.7477805,3,1,2021.0
02/15-11-060-02W6/0,JUPITER HZ RESTHA 15-11-60-2,498464,A6PR,Nabors Drilling Canada Limited,127,18 Jan 2021 06:00:00 AM,Grande Prairie,A6X1,Jupiter Resources Inc.,,Resumption,2021-01-21,11060026,11060026,54.17407128,-118.1752789,3,1,2021.0
02/08-15-066-05W6/0,PARA HZ 102 KARR 8-15-66-5,495220,A08C,Savanna Drilling Corp.,689,20 Jan 2021 07:42:00 PM,Grande Prairie,0AW4,Paramount Resources Ltd.,,Set Surface,2021-01-21,15066056,15066056,54.71259132,-118.654949,3,1,2021.0
02/01-26-067-05W6/0,CNRL 102 HZ ELM 1-26-67-5,496470,A801,Stampede Drilling A Division Of Matrix Energy Technologi,6,21 Jan 2021 02:00:00 PM,Grande Prairie,0HE9,Canadian Natural Resources Limited,,Drill To LD,2021-01-21,26067056,26067056,54.82883231,-118.6361236,3,1,2021.0
00/13-21-070-23W4/0,DELTASTREAM CANAL 13-21-70-23,498993,A2CL,Komat Drilling Ltd.,3,20 Jan 2021 01:00:00 AM,St. Albert,A6YA,Deltastream Energy Corporation,,Set Surface,2021-01-21,21070234,21070234,55.07485125,-113.4378554,3,1,2021.0
04/16-35-071-09W6/0,OVV HZ 104 WEMBLEY 16-35-71-9,498697,0Y52,Precision Drilling Corporation,535,21 Jan 2021 01:30:00 AM,Grande Prairie,0026,Ovintiv Canada ULC,,Drill To LD,2021-01-21,35071096,35071096,55.19235495,-119.2566215,3,1,2021.0
02/16-26-074-25W4/0,HWX MARTENH 16-26-74-25,498872,0XE7,Saville Drilling Ltd.,425,20 Jan 2021 10:36:00 PM,St. Albert,A8DL,Headwater Exploration Inc.,,Drill To LD,2021-01-21,26074254,26074254,55.43911772,-113.7246581,3,1,2021.0
F1/12-35-074-25W4/0,CVE A12 MARTENH 12-35-74-25,499071,A08C,Savanna Drilling Corp.,425,18 Jan 2021 10:30:00 PM,St. Albert,A5D4,Cenovus Energy Inc.,,Drill To LD,2021-01-21,35074254,35074254,55.45357068,-113.7246583,3,1,2021.0
AD/12-28-076-05W4/0,CVE A12-28 A12 HARDY 12-28-76-5,498393,0Y52,Precision Drilling Corporation,171,21 Jan 2021 03:44:00 PM,Bonnyville,A5D4,Cenovus Energy Inc.,,Drill To LD,2021-01-21,28076054,28076054,55.61363569,-110.7044933,3,1,2021.0
02/08-36-078-13W6/0,BIR 14-6 HZ 103 PCOUPES 8-36-78-13,499051,0Y52,Precision Drilling Corporation,226,21 Jan 2021 10:53:00 AM,Grande Prairie,A12R,Birchcliff Energy Ltd.,,Resumption,2021-01-21,36078136,36078136,55.80309179,-119.8621707,3,1,2021.0
00/04-35-080-03W5/0,SPL 4-1 HZ GODIN 4-35-80-3,499078,0Y52,Precision Drilling Corporation,294,21 Jan 2021 01:15:00 AM,St. Albert,A7GR,Spur Petroleum Ltd.,,Drill To LD,2021-01-21,35080035,35080035,55.97801392,-114.3402537,3,1,2021.0
AC/07-07-093-09W4/0,SYNCRUDE 113N01 7-7-93-9,497120,0Y80,Boart Longyear Canada,47,21 Jan 2021 11:00:00 AM,Bonnyville,0362,Syncrude Canada Ltd.,,Drill To LD,2021-01-21,7093094,7093094,57.05350282,-111.4277301,3,1,2021.0
AB/05-18-093-09W4/0,SYNCRUDE 087N01 5-18-93-9,497085,0Y80,Boart Longyear Canada,41,20 Jan 2021 07:00:00 PM,Bonnyville,0362,Syncrude Canada Ltd.,,Drill To LD,2021-01-21,18093094,18093094,57.06813471,-111.4277257,3,1,2021.0
07/08-03-095-06W4/2,SUNCOR P5P13B FIREBAG 8-3-95-6,381779,0Y52,Precision Drilling Corporation,151,21 Jan 2021 12:00:00 PM,Bonnyville,0054,Suncor Energy Inc.,,Resumption,2021-01-21,3095064,3095064,57.21367117,-110.8735319,3,1,2021.0
03/16-11-038-08W5/0,YANGARRA HZ 103 FERRIER 16-11-38-8,498998,A801,Stampede Drilling A Division Of Matrix Energy Technologi,5,16 Jan 2021 09:30:00 AM,Red Deer,0LN7,Yangarra Resources Corp.,,Drill To LD,2021-01-16,11038085,11038085,52.25354596,-115.0253763,2,1,2021.0
00/03-19-058-05W4/0,CNRL 3B LNDBRGH 3-19-58-5,494681,0Z41,Ensign Drilling Inc.,218,15 Jan 2021 07:54:00 PM,Bonnyville,0HE9,Canadian Natural Resources Limited,,Drill To LD,2021-01-16,19058054,19058054,54.02779805,-110.7229378,2,1,2021.0
02/10-30-059-25W5/0,TOURMALINE HZ 102 LELAND 10-30-59-25,498839,0Y52,Precision Drilling Corporation,463,15 Jan 2021 10:15:00 PM,Drayton Valley,A573,Tourmaline Oil Corp.,,Resumption,2021-01-16,30059255,30059255,54.13046421,-117.7262527,2,1,2021.0
00/08-31-061-18W5/0,CHEVRON HZ FOXCK 8-31-61-18,493785,0Z41,Ensign Drilling Inc.,770,16 Jan 2021 09:15:00 AM,St. Albert,0045,Chevron Canada Limited,,Drill To LD,2021-01-16,31061185,31061185,54.31951971,-116.6765861,2,1,2021.0
00/04-02-064-04W6/0,7GEN HZ KARR 4-2-64-4,498583,A6PR,Nabors Drilling Canada Limited,17,16 Jan 2021 05:00:00 PM,Grande Prairie,A54C,Seven Generations Energy Ltd.,,Drill To LD,2021-01-16,2064046,2064046,54.50891709,-118.4787049,2,1,2021.0
00/05-23-071-08W6/0,PIPE HZ WEMBLEY 5-23-71-8,499256,0Y52,Precision Drilling Corporation,524,16 Jan 2021 08:45:00 AM,Grande Prairie,A82B,Pipestone Energy Corp.,,Drill To LD,2021-01-16,23071086,23071086,55.16331691,-119.1026713,2,1,2021.0
00/16-04-075-25W4/0,DELTASTREAM MARTENH 16-4-75-25,498831,A2CL,Komat Drilling Ltd.,3,15 Jan 2021 05:00:00 PM,St. Albert,A6YA,Deltastream Energy Corporation,,Set Surface,2021-01-16,4075254,4075254,55.46818763,-113.8097717,2,1,2021.0
02/03-12-075-25W4/0,SPL 3-13 HZ 102 MARTENH 3-12-75-25,498558,0Y52,Precision Drilling Corporation,149,15 Jan 2021 08:30:00 PM,St. Albert,A7GR,Spur Petroleum Ltd.,,Resumption,2021-01-16,12075254,12075254,55.48262047,-113.7321418,2,1,2021.0
13/01-16-076-06W4/0,CVE G05P04 LEISMER 1-16-76-6,499054,0Z41,Ensign Drilling Inc.,141,15 Jan 2021 09:15:00 PM,Bonnyville,A5D4,Cenovus Energy Inc.,,Set Surface,2021-01-16,16076064,16076064,55.58456271,-110.8597761,2,1,2021.0
14/01-16-076-06W4/0,CVE G05P05 LEISMER 1-16-76-6,499055,0Z41,Ensign Drilling Inc.,141,16 Jan 2021 02:18:00 PM,Bonnyville,A5D4,Cenovus Energy Inc.,,Set Surface,2021-01-16,16076064,16076064,55.58456271,-110.8597761,2,1,2021.0
04/01-11-077-05W4/0,MEG DE8I HARDY 1-11-77-5,490969,0Y55,Akita Drilling Ltd.,25,16 Jan 2021 05:49:00 PM,Bonnyville,0Z9C,MEG Energy Corp.,,Resumption,2021-01-16,11077054,11077054,55.65716303,-110.6527301,2,1,2021.0
04/15-20-077-05W4/0,MEG AH14P HARDY 15-20-77-5,498949,0Y55,Akita Drilling Ltd.,27,15 Jan 2021 07:30:00 PM,Bonnyville,0Z9C,MEG Energy Corp.,,Drill To LD,2021-01-16,20077054,20077054,55.68626283,-110.730374,2,1,2021.0
AB/07-26-093-10W4/0,SYNCRUDE 056N01 7-26-93-10,497167,0Y80,Boart Longyear Canada,41,16 Jan 2021 03:00:00 AM,Bonnyville,0362,Syncrude Canada Ltd.,,Drill To LD,2021-01-16,26093104,26093104,57.09722693,-111.4814114,2,1,2021.0
AC/16-27-093-10W4/0,SYNCRUDE 034N01 16-27-93-10,497102,0Y80,Boart Longyear Canada,47,16 Jan 2021 01:30:00 AM,Bonnyville,0362,Syncrude Canada Ltd.,,Drill To LD,2021-01-16,27093104,27093104,57.09725542,-111.5082348,2,1,2021.0
00/06-15-095-06W4/0,SUNCOR P131P7 FIREBAG 6-15-95-6,497859,A6PR,Nabors Drilling Canada Limited,102,16 Jan 2021 05:30:00 PM,Bonnyville,0054,Suncor Energy Inc.,,Resumption,2021-01-16,15095064,15095064,57.24275071,-110.8735294,2,1,2021.0
02/10-13-018-11W4/0,PPR HZ 102 ALDSON 10-13-18-11,499324,A1TW,Bonanza Drilling Inc.,7,07 Feb 2021 03:30:00 AM,Medicine Hat,0T82,Prairie Provident Resources Canada Ltd.,,Drill To LD,2021-02-07,13018114,13018114,50.52105782,-111.3793704,5,2,2021.0
00/01-32-035-02W4/0,KARVE HZ PROVOST 1-32-35-2,499200,0GE9,Tempco Drilling Company Inc.,8,07 Feb 2021 12:00:00 AM,Wainwright,A7BT,Karve Energy Inc.,,Drill To LD,2021-02-07,32035024,32035024,52.04835012,-110.2432571,5,2,2021.0
00/02-33-044-11W5/0,WESTBRICK HZ PEMBINA 2-33-44-11,499437,A08C,Savanna Drilling Corp.,652,06 Feb 2021 05:00:00 PM,Drayton Valley,A5WB,Westbrick Energy Ltd.,,Drill To LD,2021-02-07,33044115,33044115,52.83610742,-115.5248606,5,2,2021.0
00/04-10-051-16W5/0,CVE 100 HZ EDSON 4-10-51-16,498505,0Z41,Ensign Drilling Inc.,557,07 Feb 2021 06:00:00 AM,Drayton Valley,A5D4,Cenovus Energy Inc.,,Drill To LD,2021-02-07,10051165,10051165,53.38843159,-116.2618518,5,2,2021.0
00/15-10-055-05W4/0,CNRL 15A LNDBRGH 15-10-55-5,491447,0Z41,Ensign Drilling Inc.,218,07 Feb 2021 06:00:00 AM,Bonnyville,0HE9,Canadian Natural Resources Limited,,Drill To LD,2021-02-07,10055054,10055054,53.73694152,-110.6489504,5,2,2021.0
00/16-24-058-02W6/0,TOURMALINE HZ SMOKY 16-24-58-2,498090,A6PR,Nabors Drilling Canada Limited,58,07 Feb 2021 05:50:00 AM,Drayton Valley,A573,Tourmaline Oil Corp.,,Resumption,2021-02-07,24058026,24058026,54.02853811,-118.1489302,5,2,2021.0
02/15-18-063-06W4/0,CNRL 15A HZ SUGDEN 15-18-63-6,498056,A801,Stampede Drilling A Division Of Matrix Energy Technologi,14,07 Feb 2021 12:00:00 AM,Bonnyville,0HE9,Canadian Natural Resources Limited,,Drill To LD,2021-02-07,18063064,18063064,54.44974457,-110.8881154,5,2,2021.0
14/14-02-076-06W4/2,CVE J01P11 KIRBY 14-2-76-6,473037,0Y52,Precision Drilling Corporation,199,07 Feb 2021 03:30:00 AM,Bonnyville,A5D4,Cenovus Energy Inc.,,Resumption,2021-02-07,2076064,2076064,55.55546363,-110.8080175,5,2,2021.0
00/13-06-082-13W5/0,ISLANDER SEAL 13-6-82-13,499431,A0KC,Horizon Drilling Inc.,7,06 Feb 2021 12:00:00 PM,St. Albert,A8A9,Islander Oil & Gas Inc.,,Drill To LD,2021-02-07,6082135,6082135,56.07990294,-116.0107296,5,2,2021.0
AB/06-08-093-09W4/0,SYNCRUDE 118N01 6-8-93-9,497125,0Y80,Boart Longyear Canada,41,06 Feb 2021 06:30:00 PM,Bonnyville,0362,Syncrude Canada Ltd.,,Drill To LD,2021-02-07,8093094,8093094,57.05351108,-111.4009069,5,2,2021.0
AA/08-08-093-09W4/0,SYNCRUDE 119N01 8-8-93-9,497126,0Y80,Boart Longyear Canada,47,07 Feb 2021 02:00:00 PM,Bonnyville,0362,Syncrude Canada Ltd.,,Drill To LD,2021-02-07,8093094,8093094,57.05351108,-111.4009069,5,2,2021.0
02/16-19-016-13W4/0,TXNE 16D-13 HZ BANTRY 16-19-16-13,498886,A1TW,Bonanza Drilling Inc.,8,23 Jan 2021 04:00:00 PM,Medicine Hat,A7NW,Torxen Energy Ltd.,,Drill To LD,2021-01-23,19016134,19016134,50.36113542,-111.7689589,3,1,2021.0
02/13-36-034-03W4/0,RHE 102 PROVOST 13-36-34-3,496166,0GE9,Tempco Drilling Company Inc.,6,23 Jan 2021 12:30:00 AM,Wainwright,A6W2,Rolling Hills Energy Ltd.,,Drill To LD,2021-01-23,36034034,36034034,51.96171461,-110.2885159,3,1,2021.0
02/01-34-035-09W4/0,KARVE 102 HZ PROVOST 1-34-35-9,498643,0GE9,Tempco Drilling Company Inc.,8,22 Jan 2021 11:30:00 PM,Wainwright,A7BT,Karve Energy Inc.,,Resumption,2021-01-23,34035094,34035094,52.0484007,-111.1954761,3,1,2021.0
00/11-36-036-04W4/0,SURGE ENERGY HZ PROVOST 11-36-36-4,498899,0Y52,Precision Drilling Corporation,145,22 Jan 2021 06:15:00 PM,Wainwright,0YK4,Surge Energy Inc.,,Drill To LD,2021-01-23,36036044,36036044,52.13565307,-110.4336541,3,1,2021.0
02/04-28-044-10W5/0,TQN FERRIER 4-28-44-10,499185,0Y52,Precision Drilling Corporation,231,23 Jan 2021 02:00:00 PM,Red Deer,A2TG,TAQA North Ltd.,,Drill To LD,2021-01-23,28044105,28044105,52.82163434,-115.379796,3,1,2021.0
02/04-31-046-07W5/0,BONTERRA HZ 102 PEMBINA 4-31-46-7,499249,A2EN,Ironhand Drilling Inc.,1,22 Jan 2021 03:30:00 PM,Drayton Valley,0XZ4,Bonterra Energy Corp.,,Drill To LD,2021-01-23,31046075,31046075,53.01140189,-114.9924437,3,1,2021.0
00/04-16-048-25W4/0,NEP DD LEDUC-WB 4-16-48-25,499139,A6EC,Twilight Drilling Ltd.,2,22 Jan 2021 10:15:00 PM,St. Albert,A637,NEP Canada ULC,,Drill To LD,2021-01-23,16048254,16048254,53.14145668,-113.5860194,3,1,2021.0
00/13-03-052-16W5/0,TOURMALINE HZ EDSON 13-3-52-16,498509,A6PR,Nabors Drilling Canada Limited,16,23 Jan 2021 05:00:00 AM,Drayton Valley,A573,Tourmaline Oil Corp.,,Drill To LD,2021-01-23,3052165,3052165,53.46119944,-116.2620077,3,1,2021.0
02/13-34-061-26W4/0,RHE 100 WESTLOCK 13-34-61-26,499196,A57H,Predator Drilling Inc.,27,23 Jan 2021 11:00:00 AM,St. Albert,A6W2,Rolling Hills Energy Ltd.,,Set Surface,2021-01-23,34061264,34061264,54.31939142,-113.8005715,3,1,2021.0
02/09-22-064-05W6/0,7GEN HZ 102 KAKWA 9-22-64-5,498555,A6PR,Nabors Drilling Canada Limited,5,23 Jan 2021 06:15:00 AM,Grande Prairie,A54C,Seven Generations Energy Ltd.,,Resumption,2021-01-23,22064056,22064056,54.55250091,-118.6549438,3,1,2021.0
00/09-27-066-04W6/0,PARA HZ KARR 9-27-66-4,498786,A5DR,Fox Drilling Inc.,3,23 Jan 2021 04:00:00 PM,Grande Prairie,0AW4,Paramount Resources Ltd.,,Drill To LD,2021-01-23,27066046,27066046,54.74165136,-118.5038919,3,1,2021.0
00/12-23-074-25W4/0,HWX MARTENH 12-23-74-25,498853,A2CL,Komat Drilling Ltd.,3,22 Jan 2021 12:00:00 AM,St. Albert,A8DL,Headwater Exploration Inc.,,Set Surface,2021-01-23,23074254,23074254,55.42448404,-113.7246578,3,1,2021.0
00/01-35-074-25W4/0,HWX MARTENH 1-35-74-25,498849,A2CL,Komat Drilling Ltd.,3,23 Jan 2021 12:55:00 AM,St. Albert,A8DL,Headwater Exploration Inc.,,Set Surface,2021-01-23,35074254,35074254,55.45357068,-113.7246583,3,1,2021.0
00/01-21-075-26W4/0,SPL 1-24 HZ MARTENH 1-21-75-26,498538,0Y52,Precision Drilling Corporation,149,22 Jan 2021 07:30:00 PM,St. Albert,A7GR,Spur Petroleum Ltd.,,Resumption,2021-01-23,21075264,21075264,55.51200042,-113.9650244,3,1,2021.0
AB/10-28-076-05W4/0,CVE A10 HARDY 10-28-76-5,498392,0Y52,Precision Drilling Corporation,254,23 Jan 2021 02:22:00 AM,Bonnyville,A5D4,Cenovus Energy Inc.,,Drill To LD,2021-01-23,28076054,28076054,55.61363569,-110.7044933,3,1,2021.0
00/01-23-079-12W6/0,CNRL HZ GORD 1-23-79-12,490752,A0KC,Horizon Drilling Inc.,48,23 Jan 2021 12:00:00 PM,Grande Prairie,0HE9,Canadian Natural Resources Limited,,Drill To LD,2021-01-23,23079126,23079126,55.8616116,-119.7491982,3,1,2021.0
AB/08-12-093-10W4/0,SYNCRUDE 123N01 8-12-93-10,497131,0Y80,Boart Longyear Canada,47,23 Jan 2021 01:30:00 AM,Bonnyville,0362,Syncrude Canada Ltd.,,Drill To LD,2021-01-23,12093104,12093104,57.05349944,-111.454556,3,1,2021.0
AB/15-14-093-10W4/0,SYNCRUDE 077N01 15-14-93-10,497065,0Y80,Boart Longyear Canada,41,22 Jan 2021 07:30:00 PM,Bonnyville,0362,Syncrude Canada Ltd.,,Drill To LD,2021-01-23,14093104,14093104,57.06813866,-111.4813998,3,1,2021.0
02/05-01-035-08W4/0,TAC 2-12 HZ 102 PROVOST 5-1-35-8,498917,0GE9,Tempco Drilling Company Inc.,5,02 Feb 2021 09:00:00 PM,Wainwright,A5TT,Tamarack Acquisition Corp.,,Drill To LD,2021-02-03,1035084,1035084,51.97600773,-111.0050864,5,2,2021.0
03/15-32-036-03W4/0,SURGE ENERGY 103 PROVOST 15-32-36-3,499244,0Y52,Precision Drilling Corporation,145,03 Feb 2021 10:45:00 AM,Wainwright,0YK4,Surge Energy Inc.,,Resumption,2021-02-03,32036034,32036034,52.13567452,-110.3860374,5,2,2021.0
04/05-31-046-07W5/0,BONTERRA HZ 104 PEMBINA 5-31-46-7,499251,A2EN,Ironhand Drilling Inc.,1,03 Feb 2021 03:00:00 PM,Drayton Valley,0XZ4,Bonterra Energy Corp.,,Drill To LD,2021-02-03,31046075,31046075,53.01140189,-114.9924437,5,2,2021.0
02/10-20-049-11W5/0,WHITECAP PEMBINA 10-20-49-11,499065,A0KC,Horizon Drilling Inc.,43,02 Feb 2021 10:00:00 PM,Drayton Valley,A5BE,Whitecap Resources Inc.,,Drill To LD,2021-02-03,20049115,20049115,53.24331665,-115.5620557,5,2,2021.0
00/10-10-055-05W4/0,CNRL 10A LNDBRGH 10-10-55-5,491446,0Z41,Ensign Drilling Inc.,218,02 Feb 2021 06:00:00 PM,Bonnyville,0HE9,Canadian Natural Resources Limited,,Drill To LD,2021-02-03,10055054,10055054,53.73694152,-110.6489504,5,2,2021.0
W0/03-28-061-03W6/0,STRATH-CONA HZ KAKWA 3-28-61-3,499097,0Y52,Precision Drilling Corporation,529,03 Feb 2021 12:15:00 PM,Grande Prairie,A8FG,Strathcona Resources Ltd.,,Drill To LD,2021-02-03,28061036,28061036,54.30507064,-118.3751793,5,2,2021.0
AA/13-16-066-03W4/0,IMP S02-OB02 LEMING 13-16-66-3,498817,A08C,Savanna Drilling Corp.,447,02 Feb 2021 04:30:00 PM,Bonnyville,0007,Imperial Oil Resources Limited,,Resumption,2021-02-03,16066034,16066034,54.7115663,-110.3841886,5,2,2021.0
05/04-01-072-09W6/0,OVV HZ 105 WEMBLEY 4-1-72-9,498690,0Y52,Precision Drilling Corporation,534,02 Feb 2021 06:00:00 PM,Grande Prairie,0026,Ovintiv Canada ULC,,Drill To LD,2021-02-03,1072096,1072096,55.20698006,-119.2310002,5,2,2021.0
04/16-26-074-25W4/0,HWX MARTENH 16-26-74-25,498874,A08C,Savanna Drilling Corp.,425,03 Feb 2021 04:45:00 AM,St. Albert,A8DL,Headwater Exploration Inc.,,Drill To LD,2021-02-03,26074254,26074254,55.43911772,-113.7246581,5,2,2021.0
03/09-22-076-07W5/0,TAC 9-23 HZ 103 NIPISI 9-22-76-7,499440,A2CL,Komat Drilling Ltd.,3,03 Feb 2021 02:00:00 AM,St. Albert,A5TT,Tamarack Acquisition Corp.,,Set Surface,2021-02-03,22076075,22076075,55.59934427,-114.9846838,5,2,2021.0
12/09-19-077-05W4/2,MEG AF2N HARDY 9-19-77-5,483791,0Y52,Precision Drilling Corporation,140,02 Feb 2021 11:00:00 PM,Bonnyville,0Z9C,MEG Energy Corp.,,Resumption,2021-02-03,19077054,19077054,55.68625552,-110.7562558,5,2,2021.0
02/03-31-078-12W6/0,BIR 14-6 HZ 102 PCOUPE 3-31-78-12,499070,0Z41,Ensign Drilling Inc.,137,02 Feb 2021 11:45:00 PM,Grande Prairie,A12R,Birchcliff Energy Ltd.,,Resumption,2021-02-03,31078126,31078126,55.80311365,-119.836321,5,2,2021.0
00/15-21-079-07W6/0,R S R HZ MIRAGE 15-21-79-7,498507,0Y52,Precision Drilling Corporation,182,03 Feb 2021 07:15:00 AM,Grande Prairie,A7CZ,Rising Star Resources Ltd.,,Drill To LD,2021-02-03,21079076,21079076,55.8616058,-119.0185105,5,2,2021.0
AA/13-08-093-09W4/0,SYNCRUDE 100N01 13-8-93-9,497097,0Y80,Boart Longyear Canada,41,03 Feb 2021 06:30:00 AM,Bonnyville,0362,Syncrude Canada Ltd.,,Drill To LD,2021-02-03,8093094,8093094,57.05351108,-111.4009069,5,2,2021.0
AD/14-08-093-09W4/0,SYNCRUDE 29ROVCH194250L01 14-8-93-9,493284,0Y80,Boart Longyear Canada,47,03 Feb 2021 03:00:00 PM,Bonnyville,0362,Syncrude Canada Ltd.,,Drill To LD,2021-02-03,8093094,8093094,57.05351108,-111.4009069,5,2,2021.0
AA/05-17-093-09W4/0,SYNCRUDE 093N01 5-17-93-9,497090,0Y80,Boart Longyear Canada,37,03 Feb 2021 12:15:00 PM,Bonnyville,0362,Syncrude Canada Ltd.,,Drill To LD,2021-02-03,17093094,17093094,57.06814282,-111.4009048,5,2,2021.0
AA/07-17-093-09W4/0,SYNCRUDE 29ROVCH194241L01 7-17-93-9,493272,0Y80,Boart Longyear Canada,47,02 Feb 2021 10:00:00 PM,Bonnyville,0362,Syncrude Canada Ltd.,,Drill To LD,2021-02-03,17093094,17093094,57.06814282,-111.4009048,5,2,2021.0
AC/01-19-093-09W4/0,SYNCRUDE 145N01 1-19-93-9,497161,0Y80,Boart Longyear Canada,32,03 Feb 2021 10:30:00 AM,Bonnyville,0362,Syncrude Canada Ltd.,,Drill To LD,2021-02-03,19093094,19093094,57.08258595,-111.4277215,5,2,2021.0
02/02-22-039-24W4/0,ENHANCEENERGY CLIVE 2-22-39-24,498862,0ZG2,Excalibur Drilling Ltd.,14,13 Jan 2021 11:05:00 AM,Red Deer,A216,Enhance Energy Inc.,,Drill To LD,2021-01-13,22039244,22039244,52.3686036,-113.363547,2,1,2021.0
00/02-32-041-01W4/0,LONGSHORE HZ HAYTER 2-32-41-1,499116,0GE9,Tempco Drilling Company Inc.,3,13 Jan 2021 11:45:00 AM,Wainwright,A76W,Longshore Resources Ltd.,,Drill To LD,2021-01-13,32041014,32041014,52.57217578,-110.1008673,2,1,2021.0
00/14-11-044-14W5/0,TOURMALINE HZ BRAZR 14-11-44-14,498938,0Z41,Ensign Drilling Inc.,T038,13 Jan 2021 03:00:00 AM,Drayton Valley,A573,Tourmaline Oil Corp.,,Resumption,2021-01-13,11044145,11044145,52.77789961,-115.9116694,2,1,2021.0
00/14-31-048-12W5/0,WESTBRICK HZ PEMBINA 14-31-48-12,499085,A08C,Savanna Drilling Corp.,652,13 Jan 2021 01:15:00 PM,Drayton Valley,A5WB,Westbrick Energy Ltd.,,Drill To LD,2021-01-13,31048125,31048125,53.18508216,-115.7326221,2,1,2021.0
00/12-08-050-10W5/0,WHITECAP PEMBINA 12-8-50-10,496798,A0KC,Horizon Drilling Inc.,43,12 Jan 2021 07:27:00 PM,Drayton Valley,A5BE,Whitecap Resources Inc.,,Drill To LD,2021-01-13,8050105,8050105,53.30154102,-115.4156837,2,1,2021.0
00/08-06-056-20W5/0,PEYTO SUNDANCE 8-6-56-20,496376,0Z41,Ensign Drilling Inc.,432,12 Jan 2021 05:30:00 PM,Drayton Valley,0YA2,Peyto Exploration & Development Corp.,,Drill To LD,2021-01-13,6056205,6056205,53.81014161,-116.9496769,2,1,2021.0
00/13-35-063-04W6/0,7GEN HZ KAKWA 13-35-63-4,498581,A6PR,Nabors Drilling Canada Limited,17,13 Jan 2021 01:30:00 PM,Grande Prairie,A54C,Seven Generations Energy Ltd.,,Set Surface,2021-01-13,35063046,35063046,54.49428211,-118.4787021,2,1,2021.0
02/16-15-064-06W6/0,7GEN HZ 102 KAKWA 16-15-64-6,498928,A6GJ,Dc Drilling Inc.,1,12 Jan 2021 08:45:00 PM,Grande Prairie,A54C,Seven Generations Energy Ltd.,,Set Surface,2021-01-13,15064066,15064066,54.53806561,-118.8058884,2,1,2021.0
08/13-09-065-03W4/2,IMP G02-23ST COLD LK 13-9-65-3,222379,0Z41,Ensign Drilling Inc.,1201,13 Jan 2021 08:00:00 AM,Bonnyville,0007,Imperial Oil Resources Limited,,Resumption,2021-01-13,9065034,9065034,54.60970431,-110.3840054,2,1,2021.0
00/13-14-074-25W4/0,DELTASTREAM MARTENH 13-14-74-25,498314,A0KC,Horizon Drilling Inc.,51,13 Jan 2021 07:00:00 AM,St. Albert,A6YA,Deltastream Energy Corporation,,Resumption,2021-01-13,14074254,14074254,55.41003099,-113.7246576,2,1,2021.0
00/15-08-075-25W4/0,DELTASTREAM MARTENH 15-8-75-25,498828,A2CL,Komat Drilling Ltd.,3,12 Jan 2021 08:30:00 PM,St. Albert,A6YA,Deltastream Energy Corporation,,Set Surface,2021-01-13,8075254,8075254,55.48263795,-113.8356459,2,1,2021.0
12/01-16-076-06W4/0,CVE G05P01 LEISMER 1-16-76-6,498974,0Z41,Ensign Drilling Inc.,141,13 Jan 2021 03:38:00 PM,Bonnyville,A5D4,Cenovus Energy Inc.,,Set Surface,2021-01-13,16076064,16076064,55.58456271,-110.8597761,2,1,2021.0
AC/06-19-093-09W4/0,SYNCRUDE 071N01 6-19-93-9,497182,A1YG,Big Country Drilling Ltd.,3,13 Jan 2021 04:30:00 PM,Bonnyville,0362,Syncrude Canada Ltd.,,Drill To LD,2021-01-13,19093094,19093094,57.08258595,-111.4277215,2,1,2021.0
AA/12-26-093-10W4/0,SYNCRUDE 044N01 12-26-93-10,497432,0Y80,Boart Longyear Canada,47,13 Jan 2021 02:30:00 AM,Bonnyville,0362,Syncrude Canada Ltd.,,Drill To LD,2021-01-13,26093104,26093104,57.09722693,-111.4814114,2,1,2021.0
AB/13-26-093-10W4/0,SYNCRUDE 29ROVCH194303L0 13-26-93-10,493341,0Y80,Boart Longyear Canada,41,12 Jan 2021 08:30:00 PM,Bonnyville,0362,Syncrude Canada Ltd.,,Drill To LD,2021-01-13,26093104,26093104,57.09722693,-111.4814114,2,1,2021.0
AB/14-26-093-10W4/0,SYNCRUDE 032N01 14-26-93-10,497081,0Y80,Boart Longyear Canada,41,13 Jan 2021 10:30:00 AM,Bonnyville,0362,Syncrude Canada Ltd.,,Drill To LD,2021-01-13,26093104,26093104,57.09722693,-111.4814114,2,1,2021.0
AA/14-35-093-10W4/0,SYNCRUDE 009N01 14-35-93-10,497055,A1YG,Big Country Drilling Ltd.,6,12 Jan 2021 08:45:00 PM,Bonnyville,0362,Syncrude Canada Ltd.,,Drill To LD,2021-01-13,35093104,35093104,57.11168027,-111.4813806,2,1,2021.0
06/04-02-095-06W4/2,SUNCOR P4P9B FIREBAG 4-2-95-6,291140,0Y52,Precision Drilling Corporation,151,13 Jan 2021 10:00:00 AM,Bonnyville,0054,Suncor Energy Inc.,,Resumption,2021-01-13,2095064,2095064,57.21366247,-110.8464522,2,1,2021.0
AB/10-07-095-06W4/0,SUNCOR FIREBAG 10-7-95-6,498739,A1YG,Big Country Drilling Ltd.,18,12 Jan 2021 09:00:00 PM,Bonnyville,0054,Suncor Energy Inc.,,Drill To LD,2021-01-13,7095064,7095064,57.22811164,-110.954755,2,1,2021.0
00/03-15-095-06W4/0,SUNCOR P131P5 FIREBAG 3-15-95-6,497857,A6PR,Nabors Drilling Canada Limited,102,12 Jan 2021 08:00:00 PM,Bonnyville,0054,Suncor Energy Inc.,,Drill To LD,2021-01-13,15095064,15095064,57.24275071,-110.8735294,2,1,2021.0
00/02-03-052-23W5/0,TOURMALINE HZ PEPPERS 2-3-52-23,498923,A6PR,Nabors Drilling Canada Limited,C34,01 Feb 2021 06:45:00 AM,Drayton Valley,A573,Tourmaline Oil Corp.,,Set Surface,2021-02-01,3052235,3052235,53.46125842,-117.2936529,5,2,2021.0
W0/01-28-061-03W6/0,STRATH-CONA HZ KAKWA 1-28-61-3,499098,0Y52,Precision Drilling Corporation,529,31 Jan 2021 07:15:00 PM,Grande Prairie,A8FG,Strathcona Resources Ltd.,,Set Surface,2021-02-01,28061036,28061036,54.30507064,-118.3751793,5,2,2021.0
00/13-04-063-22W5/0,PCC WAHIGAN 13-4-63-22,496854,0Y52,Precision Drilling Corporation,570,01 Feb 2021 08:45:00 AM,St. Albert,A5LH,PetroChina Canada Ltd.,,Drill To LD,2021-02-01,4063225,4063225,54.42169892,-117.2527372,5,2,2021.0
AB/13-16-066-03W4/0,IMP S02-OV1 LEMING 13-16-66-3,498820,A08C,Savanna Drilling Corp.,447,31 Jan 2021 05:30:00 PM,Bonnyville,0007,Imperial Oil Resources Limited,,Drill To LD,2021-02-01,16066034,16066034,54.7115663,-110.3841886,5,2,2021.0
02/04-07-067-08W6/0,WHITECAP 102 WAPITI 4-7-67-8,498934,0Y52,Precision Drilling Corporation,403,31 Jan 2021 07:30:00 PM,Grande Prairie,A5BE,Whitecap Resources Inc.,,Drill To LD,2021-02-01,7067086,7067086,54.78511785,-119.1956964,5,2,2021.0
AB/05-24-070-04W4/0,CVE A5 FISHER 5-24-70-4,498775,0Y52,Precision Drilling Corporation,171,31 Jan 2021 10:45:00 PM,Bonnyville,A5D4,Cenovus Energy Inc.,,Drill To LD,2021-02-01,24070044,24070044,55.07502764,-110.4633329,5,2,2021.0
05/01-10-076-06W4/2,CVE J01P01 LEISMER 1-10-76-6,470956,0Y52,Precision Drilling Corporation,199,31 Jan 2021 07:00:00 PM,Bonnyville,A5D4,Cenovus Energy Inc.,,Resumption,2021-02-01,10076064,10076064,55.56992515,-110.8338973,5,2,2021.0
03/13-13-079-12W6/0,BIR 5-7 HZ 103 PCOUPES 13-13-79-12,498990,A6PR,Nabors Drilling Canada Limited,77,01 Feb 2021 01:00:00 PM,Grande Prairie,A12R,Birchcliff Energy Ltd.,,Drill To LD,2021-02-01,13079126,13079126,55.84708672,-119.7231728,5,2,2021.0
AB/02-07-093-09W4/0,SYNCRUDE 124N01 2-7-93-9,497140,0Y80,Boart Longyear Canada,47,01 Feb 2021 01:00:00 PM,Bonnyville,0362,Syncrude Canada Ltd.,,Drill To LD,2021-02-01,7093094,7093094,57.05350282,-111.4277301,5,2,2021.0
AB/11-17-093-09W4/0,SYNCRUDE 082N01 11-17-93-9,497070,0Y80,Boart Longyear Canada,37,31 Jan 2021 08:30:00 PM,Bonnyville,0362,Syncrude Canada Ltd.,,Drill To LD,2021-02-01,17093094,17093094,57.06814282,-111.4009048,5,2,2021.0
AA/12-17-093-09W4/0,SYNCRUDE 083N01 12-17-93-9,497071,0Y80,Boart Longyear Canada,32,31 Jan 2021 07:30:00 PM,Bonnyville,0362,Syncrude Canada Ltd.,,Drill To LD,2021-02-01,17093094,17093094,57.06814282,-111.4009048,5,2,2021.0
AB/08-18-093-09W4/0,SYNCRUDE 089N01 8-18-93-9,497086,0Y80,Boart Longyear Canada,37,01 Feb 2021 04:30:00 PM,Bonnyville,0362,Syncrude Canada Ltd.,,Drill To LD,2021-02-01,18093094,18093094,57.06813471,-111.4277257,5,2,2021.0
AA/15-20-093-09W4/0,SYNCRUDE 060N01 15-20-93-9,497171,0Y80,Boart Longyear Canada,32,01 Feb 2021 02:30:00 PM,Bonnyville,0362,Syncrude Canada Ltd.,,Drill To LD,2021-02-01,20093094,20093094,57.08259388,-111.4009027,5,2,2021.0
00/01-14-041-11W5/0,PEYTO CHAMBERS 1-14-41-11,499039,A08C,Savanna Drilling Corp.,616,04 Feb 2021 09:00:00 AM,Red Deer,0YA2,Peyto Exploration & Development Corp.,,Drill To LD,2021-02-04,14041115,14041115,52.53045219,-115.4648236,5,2,2021.0
03/06-33-042-06W5/0,ENTRADA 103 HZ WILLGR 6-33-42-6,499211,A2EN,Ironhand Drilling Inc.,2,04 Feb 2021 01:30:00 PM,Red Deer,A7DT,Entrada Resources Inc.,,Drill To LD,2021-02-04,33042065,33042065,52.66115654,-114.7935347,5,2,2021.0
00/09-04-043-10W5/0,TQN FERRIER 9-4-43-10,499145,0Y52,Precision Drilling Corporation,225,04 Feb 2021 03:15:00 AM,Red Deer,A2TG,TAQA North Ltd.,,Drill To LD,2021-02-04,4043105,4043105,52.67613736,-115.3798014,5,2,2021.0
00/03-33-044-07W4/0,SURGE ENERGY HZ WAINWR 3-33-44-7,499074,A77K,Star Valley Drilling Ltd.,102,04 Feb 2021 06:06:00 AM,Wainwright,0YK4,Surge Energy Inc.,,Resumption,2021-02-04,33044074,33044074,52.8360007,-110.9473444,5,2,2021.0
00/15-03-052-16W5/0,TOURMALINE HZ EDSON 15-3-52-16,498508,A6PR,Nabors Drilling Canada Limited,16,04 Feb 2021 09:15:00 AM,Drayton Valley,A573,Tourmaline Oil Corp.,,Resumption,2021-02-04,3052165,3052165,53.46119944,-116.2620077,5,2,2021.0
AA/07-19-070-03W4/0,CVE C7 FISHER 7-19-70-3,498767,0Y52,Precision Drilling Corporation,171,03 Feb 2021 06:00:00 PM,Bonnyville,A5D4,Cenovus Energy Inc.,,Drill To LD,2021-02-04,19070034,19070034,55.07504021,-110.4379094,5,2,2021.0
AA/05-02-070-04W4/0,CVE B5 FISHER 5-2-70-4,498770,0Y52,Precision Drilling Corporation,144,04 Feb 2021 08:54:00 AM,Bonnyville,A5D4,Cenovus Energy Inc.,,Drill To LD,2021-02-04,2070044,2070044,55.03148337,-110.4887567,5,2,2021.0
00/09-04-075-25W4/0,DELTASTREAM MARTENH 9-4-75-25,498833,A0KC,Horizon Drilling Inc.,51,04 Feb 2021 05:15:00 AM,St. Albert,A6YA,Deltastream Energy Corporation,,Resumption,2021-02-04,4075254,4075254,55.46818763,-113.8097717,5,2,2021.0
04/05-12-077-05W4/0,MEG DE4P HARDY 5-12-77-5,490953,0Y55,Akita Drilling Ltd.,25,04 Feb 2021 01:45:00 AM,Bonnyville,0Z9C,MEG Energy Corp.,,Resumption,2021-02-04,12077054,12077054,55.65714511,-110.6268493,5,2,2021.0
AA/13-03-093-09W4/0,SYNCRUDE 126N01 13-3-93-9,497142,0Y80,Boart Longyear Canada,41,04 Feb 2021 02:00:00 AM,Bonnyville,0362,Syncrude Canada Ltd.,,Drill To LD,2021-02-04,3093094,3093094,57.03905907,-111.3472567,5,2,2021.0
AA/06-06-093-09W4/0,SYNCRUDE 135N01 6-6-93-9,497151,0Y80,Boart Longyear Canada,37,04 Feb 2021 12:30:00 PM,Bonnyville,0362,Syncrude Canada Ltd.,,Drill To LD,2021-02-04,6093094,6093094,57.03905152,-111.4277344,5,2,2021.0
AB/13-08-093-09W4/0,SYNCRUDE 146N01 13-8-93-9,497162,0Y80,Boart Longyear Canada,47,04 Feb 2021 09:30:00 AM,Bonnyville,0362,Syncrude Canada Ltd.,,Drill To LD,2021-02-04,8093094,8093094,57.05351108,-111.4009069,5,2,2021.0
AB/13-17-093-09W4/0,SYNCRUDE 080N01 13-17-93-9,497068,0Y80,Boart Longyear Canada,32,04 Feb 2021 09:15:00 AM,Bonnyville,0362,Syncrude Canada Ltd.,,Drill To LD,2021-02-04,17093094,17093094,57.06814282,-111.4009048,5,2,2021.0
00/04-22-038-28W4/0,VESTA 100- CYGNET 4-22-38-28,499284,A6EC,Twilight Drilling Ltd.,3,05 Feb 2021 05:30:00 AM,Red Deer,A0L1,Vesta Energy Ltd.,,Drill To LD,2021-02-05,22038284,22038284,52.28167701,-113.9092407,5,2,2021.0
00/13-07-044-08W5/0,WESTBRICK HZ WILLGR 13-7-44-8,499349,0Z41,Ensign Drilling Inc.,32,05 Feb 2021 01:45:00 PM,Red Deer,A5WB,Westbrick Energy Ltd.,,Drill To LD,2021-02-05,7044085,7044085,52.77851902,-115.1378365,5,2,2021.0
02/13-15-051-12W5/0,BACCALIEU HZ 102 PEMBINA 13-15-51-12,491940,A0KC,Horizon Drilling Inc.,4,04 Feb 2021 11:30:00 PM,Drayton Valley,A73C,Baccalieu Energy Inc.,,Drill To LD,2021-02-05,15051125,15051125,53.40302306,-115.6723963,5,2,2021.0
02/01-04-068-04W4/0,CNRL OB2 MOORE 1-4-68-4,498804,0Y52,Precision Drilling Corporation,183,04 Feb 2021 10:00:00 PM,Bonnyville,0HE9,Canadian Natural Resources Limited,,Drill To LD,2021-02-05,4068044,4068044,54.85692714,-110.5396855,5,2,2021.0
AC/16-24-070-04W4/0,CVE C16 FISHER 16-24-70-4,498778,0Y52,Precision Drilling Corporation,254,04 Feb 2021 11:30:00 PM,Bonnyville,A5D4,Cenovus Energy Inc.,,Drill To LD,2021-02-05,24070044,24070044,55.07502764,-110.4633329,5,2,2021.0
00/16-04-076-05W5/0,SPL 16-06 MARTEN 16-4-76-5,499192,0Y52,Precision Drilling Corporation,147,05 Feb 2021 12:00:00 AM,St. Albert,A7GR,Spur Petroleum Ltd.,,Drill To LD,2021-02-05,4076055,4076055,55.55578995,-114.7000571,5,2,2021.0
00/13-25-076-06W5/0,SPL 11-24 HZ MARTEN 13-25-76-6,498809,0Y52,Precision Drilling Corporation,294,04 Feb 2021 09:30:00 PM,St. Albert,A7GR,Spur Petroleum Ltd.,,Resumption,2021-02-05,25076065,25076065,55.61396251,-114.7776582,5,2,2021.0
04/08-24-076-07W5/0,TAC 9-23 HZ 104 NIPISI 8-24-76-7,499203,0Y52,Precision Drilling Corporation,185,05 Feb 2021 07:30:00 AM,St. Albert,A5TT,Tamarack Acquisition Corp.,,Drill To LD,2021-02-05,24076075,24076075,55.59935755,-114.9328907,5,2,2021.0
AB/16-05-093-09W4/0,SYNCRUDE 125N01 16-5-93-9,497141,0Y80,Boart Longyear Canada,41,04 Feb 2021 10:30:00 PM,Bonnyville,0362,Syncrude Canada Ltd.,,Drill To LD,2021-02-05,5093094,5093094,57.03905993,-111.400909,5,2,2021.0
AB/15-06-093-09W4/0,SYNCRUDE 130N01 15-6-93-9,497146,0Y80,Boart Longyear Canada,37,05 Feb 2021 03:00:00 PM,Bonnyville,0362,Syncrude Canada Ltd.,,Drill To LD,2021-02-05,6093094,6093094,57.03905152,-111.4277344,5,2,2021.0
AB/11-08-093-09W4/0,SYNCRUDE 147N01 11-8-93-9,497164,A1YG,Big Country Drilling Ltd.,10,05 Feb 2021 07:30:00 AM,Bonnyville,0362,Syncrude Canada Ltd.,,Drill To LD,2021-02-05,8093094,8093094,57.05351108,-111.4009069,5,2,2021.0
AC/16-08-093-09W4/0,SYNCRUDE 105N01 16-8-93-9,497112,0Y80,Boart Longyear Canada,47,05 Feb 2021 07:00:00 AM,Bonnyville,0362,Syncrude Canada Ltd.,,Drill To LD,2021-02-05,8093094,8093094,57.05351108,-111.4009069,5,2,2021.0
00/13-36-034-03W4/0,RHE 100 PROVOST 13-36-34-3,496165,0GE9,Tempco Drilling Company Inc.,6,26 Jan 2021 08:00:00 PM,Wainwright,A6W2,Rolling Hills Energy Ltd.,,Drill To LD,2021-01-27,36034034,36034034,51.96171461,-110.2885159,4,1,2021.0
00/04-14-035-09W4/0,KARVE HZ PROVOST 4-14-35-9,498826,0GE9,Tempco Drilling Company Inc.,8,27 Jan 2021 12:30:00 AM,Wainwright,A7BT,Karve Energy Inc.,,Resumption,2021-01-27,14035094,14035094,52.00478774,-111.1717461,4,1,2021.0
04/14-15-051-12W5/0,BACCALIEU HZ 104 PEMBINA 14-15-51-12,491941,A0KC,Horizon Drilling Inc.,4,27 Jan 2021 12:30:00 AM,Drayton Valley,A73C,Baccalieu Energy Inc.,,Drill To LD,2021-01-27,15051125,15051125,53.40302306,-115.6723963,4,1,2021.0
00/14-09-055-22W5/0,CNRL HZ SUNDANCE 14-9-55-22,498661,0Z41,Ensign Drilling Inc.,419,27 Jan 2021 06:08:00 AM,Drayton Valley,0HE9,Canadian Natural Resources Limited,,Drill To LD,2021-01-27,9055225,9055225,53.73744457,-117.1973574,4,1,2021.0
03/12-18-058-05W4/0,CNRL 12A LIND 12-18-58-5,498178,0Z41,Ensign Drilling Inc.,218,26 Jan 2021 10:30:00 PM,Bonnyville,0HE9,Canadian Natural Resources Limited,,Drill To LD,2021-01-27,18058054,18058054,54.01332889,-110.7229605,4,1,2021.0
04/12-04-060-02W6/0,JUPITER HZ RESTHA 12-4-60-2,499076,0Y52,Precision Drilling Corporation,527,26 Jan 2021 08:29:00 PM,Grande Prairie,A6X1,Jupiter Resources Inc.,,Resumption,2021-01-27,4060026,4060026,54.15962199,-118.2252649,4,1,2021.0
00/02-31-061-18W5/0,CHEVRON HZ FOXCK 2-31-61-18,493787,0Z41,Ensign Drilling Inc.,770,27 Jan 2021 08:40:00 AM,St. Albert,0045,Chevron Canada Limited,,Drill To LD,2021-01-27,31061185,31061185,54.31951971,-116.6765861,4,1,2021.0
00/13-25-073-26W4/0,SPL 13-36 HZ MARTENH 13-25-73-26,499037,0Y52,Precision Drilling Corporation,147,27 Jan 2021 03:30:00 AM,St. Albert,A7GR,Spur Petroleum Ltd.,,Drill To LD,2021-01-27,25073264,25073264,55.35182515,-113.8527962,4,1,2021.0
03/16-26-074-25W4/0,HWX MARTENH 16-26-74-25,498873,A08C,Savanna Drilling Corp.,425,27 Jan 2021 03:00:00 PM,St. Albert,A8DL,Headwater Exploration Inc.,,Drill To LD,2021-01-27,26074254,26074254,55.43911772,-113.7246581,4,1,2021.0
00/01-02-076-08W6/0,TOURMALINE HZ VALHALLA 1-2-76-8,498503,0Y52,Precision Drilling Corporation,541,27 Jan 2021 05:45:00 AM,Grande Prairie,A573,Tourmaline Oil Corp.,,Resumption,2021-01-27,2076086,2076086,55.55600861,-119.1123032,4,1,2021.0
02/09-33-076-13W6/0,AVN 102 HZ PCOUPES 9-33-76-13,499052,A0KC,Horizon Drilling Inc.,30,27 Jan 2021 01:15:00 AM,Grande Prairie,0TD9,Advantage Oil & Gas Ltd.,,Drill To LD,2021-01-27,33076136,33076136,55.62858077,-119.939754,4,1,2021.0
AA/13-12-093-10W4/0,SYNCRUDE 29ROVCH194258L0 13-12-93-10,493274,0Y80,Boart Longyear Canada,41,27 Jan 2021 07:30:00 AM,Bonnyville,0362,Syncrude Canada Ltd.,,Drill To LD,2021-01-27,12093104,12093104,57.05349944,-111.454556,4,1,2021.0
AA/04-25-093-10W4/0,SYNCRUDE 058N01 4-25-93-10,497169,A1YG,Big Country Drilling Ltd.,10,27 Jan 2021 01:00:00 PM,Bonnyville,0362,Syncrude Canada Ltd.,,Drill To LD,2021-01-27,25093104,25093104,57.0972359,-111.4545294,4,1,2021.0
AC/05-26-093-10W4/0,SYNCRUDE 055N01 5-26-93-10,497166,A1YG,Big Country Drilling Ltd.,10,26 Jan 2021 04:30:00 PM,Bonnyville,0362,Syncrude Canada Ltd.,,Drill To LD,2021-01-27,26093104,26093104,57.09722693,-111.4814114,4,1,2021.0
02/15-23-034-03W4/0,RHE 102 PROVOST 15-23-34-3,498856,A57H,Predator Drilling Inc.,27,07 Jan 2021 07:30:00 AM,Wainwright,A6W2,Rolling Hills Energy Ltd.,,Set Surface,2021-01-07,23034034,23034034,51.93266363,-110.3121627,1,1,2021.0
00/16-26-034-10W4/0,TAC 16-24 HZ PROVOST 16-26-34-10,498885,0GE9,Tempco Drilling Company Inc.,9,06 Jan 2021 07:00:00 PM,Wainwright,A5TT,Tamarack Acquisition Corp.,,Drill To LD,2021-01-07,26034104,26034104,51.94740631,-111.304526,1,1,2021.0
00/12-04-063-22W5/0,PCC HZ WAHIGAN 12-4-63-22,496853,0Y52,Precision Drilling Corporation,570,07 Jan 2021 04:59:00 PM,St. Albert,A5LH,PetroChina Canada Ltd.,,Drill To LD,2021-01-07,4063225,4063225,54.42169892,-117.2527372,1,1,2021.0
00/15-09-066-05W6/0,NUVISTA 100 HZ C KARR 15-9-66-5,497718,A6PR,Nabors Drilling Canada Limited,86,07 Jan 2021 06:55:00 AM,Grande Prairie,A0A7,NuVista Energy Ltd.,,Drill To LD,2021-01-07,9066056,9066056,54.69795807,-118.6801257,1,1,2021.0
00/04-26-074-25W4/0,CVE 13-24 HZ MARTENH 4-26-74-25,498854,0Y52,Precision Drilling Corporation,157,06 Jan 2021 04:45:00 PM,St. Albert,A5D4,Cenovus Energy Inc.,,Drill To LD,2021-01-07,26074254,26074254,55.43911772,-113.7246581,1,1,2021.0
00/13-27-074-25W4/0,CVE 12-26 HZ MARTENH 13-27-74-25,498848,A1TW,Bonanza Drilling Inc.,5,07 Jan 2021 01:00:00 AM,St. Albert,A5D4,Cenovus Energy Inc.,,Drill To LD,2021-01-07,27074254,27074254,55.43912494,-113.7502903,1,1,2021.0
AD/13-34-075-06W4/0,CVE D13-34 D13 KIRBY 13-34-75-6,498400,0Y52,Precision Drilling Corporation,254,06 Jan 2021 09:47:00 PM,Bonnyville,A5D4,Cenovus Energy Inc.,,Drill To LD,2021-01-07,34075064,34075064,55.54083814,-110.8338966,1,1,2021.0
00/16-32-075-11W6/0,CNRL HZ VALHALLA 16-32-75-11,498546,A0KC,Horizon Drilling Inc.,52,06 Jan 2021 07:45:00 PM,Grande Prairie,0HE9,Canadian Natural Resources Limited,,Drill To LD,2021-01-07,32075116,32075116,55.54135872,-119.6552771,1,1,2021.0
05/02-16-076-06W4/0,CVE G05I07 LEISMER 2-16-76-6,498964,0Z41,Ensign Drilling Inc.,141,07 Jan 2021 03:16:00 AM,Bonnyville,A5D4,Cenovus Energy Inc.,,Set Surface,2021-01-07,16076064,16076064,55.58456271,-110.8597761,1,1,2021.0
00/04-24-076-07W5/0,TAC 12-18 HZ NIPISI 4-24-76-7,499136,0Y52,Precision Drilling Corporation,152,06 Jan 2021 11:00:00 PM,St. Albert,A5TT,Tamarack Acquisition Corp.,,Drill To LD,2021-01-07,24076075,24076075,55.59935755,-114.9328907,1,1,2021.0
00/04-34-078-16W5/0,BAYTEX N389 DAWSON 4-34-78-16,499004,0Y52,Precision Drilling Corporation,182SL,07 Jan 2021 06:30:00 AM,St. Albert,0RL9,Baytex Energy Ltd.,,Drill To LD,2021-01-07,34078165,34078165,55.80314554,-116.381284,1,1,2021.0
00/08-20-078-09W6/0,LONGSHORE HZ PROGRESS 8-20-78-9,499132,0Z41,Ensign Drilling Inc.,420,06 Jan 2021 08:45:00 PM,Grande Prairie,A76W,Longshore Resources Ltd.,,Drill To LD,2021-01-07,20078096,20078096,55.77403125,-119.3449764,1,1,2021.0
00/03-31-078-12W6/0,BIR 14-6 HZ PCOUPE 3-31-78-12,499067,0Z41,Ensign Drilling Inc.,137,06 Jan 2021 08:30:00 AM,Grande Prairie,A12R,Birchcliff Energy Ltd.,,Set Surface,2021-01-07,31078126,31078126,55.80311365,-119.836321,1,1,2021.0
02/07-36-078-13W6/0,BIR 14-6 HZ 102 PCOUPES 7-36-78-13,499048,0Y52,Precision Drilling Corporation,226,07 Jan 2021 11:43:00 AM,Grande Prairie,A12R,Birchcliff Energy Ltd.,,Set Surface,2021-01-07,36078136,36078136,55.80309179,-119.8621707,1,1,2021.0
AA/09-25-093-10W4/0,SYNCRUDE 047N01 9-25-93-10,497133,0Y80,Boart Longyear Canada,47,07 Jan 2021 10:45:00 AM,Bonnyville,0362,Syncrude Canada Ltd.,,Drill To LD,2021-01-07,25093104,25093104,57.0972359,-111.4545294,1,1,2021.0
AB/12-25-093-10W4/0,SYNCRUDE 049N01 12-25-93-10,497135,0Y80,Boart Longyear Canada,47,06 Jan 2021 12:30:00 AM,Bonnyville,0362,Syncrude Canada Ltd.,,Drill To LD,2021-01-07,25093104,25093104,57.0972359,-111.4545294,1,1,2021.0
00/13-20-038-07W5/0,BEC HZ FERRIER 13-20-38-7,497872,A08C,Savanna Drilling Corp.,655E,05 Jan 2021 05:30:00 PM,Red Deer,A5RX,Bonavista Energy Corporation,,Drill To LD,2021-01-06,20038075,20038075,52.28268355,-114.9539866,1,1,2021.0
00/03-33-044-07W4/0,SURGE ENERGY HZ WAINWR 3-33-44-7,499074,A8AF,Hertz & Paluck Energy Services Inc.,1,05 Jan 2021 03:00:00 PM,Wainwright,0YK4,Surge Energy Inc.,,Set Surface,2021-01-06,33044074,33044074,52.8360007,-110.9473444,1,1,2021.0
00/02-26-051-20W5/0,BEC HZ ANSELL 2-26-51-20,498792,A08C,Savanna Drilling Corp.,631,06 Jan 2021 03:00:00 PM,Drayton Valley,A5RX,Bonavista Energy Corporation,,Drill To LD,2021-01-06,26051205,26051205,53.43209048,-116.8268523,1,1,2021.0
04/12-04-060-02W6/0,JUPITER HZ RESTHA 12-4-60-2,499076,0Y52,Precision Drilling Corporation,527STE,06 Jan 2021 11:00:00 AM,Grande Prairie,A6X1,Jupiter Resources Inc.,,Set Surface,2021-01-06,4060026,4060026,54.15962199,-118.2252649,1,1,2021.0
00/14-09-065-03W4/2,IMP G02-31ST COLD LK 14-9-65-3,222286,0Z41,Ensign Drilling Inc.,1201,06 Jan 2021 06:00:00 PM,Bonnyville,0007,Imperial Oil Resources Limited,,Resumption,2021-01-06,9065034,9065034,54.60970431,-110.3840054,1,1,2021.0
02/01-06-066-04W6/0,PARA HZ 102 KARR 1-6-66-4,498451,A5DR,Fox Drilling Inc.,7,06 Jan 2021 12:56:00 PM,Grande Prairie,0AW4,Paramount Resources Ltd.,,Drill To LD,2021-01-06,6066046,6066046,54.68346476,-118.5794208,1,1,2021.0
00/05-15-074-01W6/0,CANAMAX HZ PUSKWA 5-15-74-1,498264,A0KC,Horizon Drilling Inc.,45,06 Jan 2021 09:56:00 AM,Grande Prairie,A6LB,Canamax Energy Ltd.,,Drill To LD,2021-01-06,15074016,15074016,55.41061563,-118.0516351,1,1,2021.0
AB/07-19-076-05W4/0,CVE C7 HARDY 7-19-76-5,498381,0Y52,Precision Drilling Corporation,144,05 Jan 2021 09:02:00 PM,Bonnyville,A5D4,Cenovus Energy Inc.,,Drill To LD,2021-01-06,19076054,19076054,55.59899293,-110.7562545,1,1,2021.0
06/02-16-076-06W4/0,CVE G05I08 LEISMER 2-16-76-6,498965,0Z41,Ensign Drilling Inc.,141,06 Jan 2021 09:43:00 AM,Bonnyville,A5D4,Cenovus Energy Inc.,,Drill To LD,2021-01-06,16076064,16076064,55.58456271,-110.8597761,1,1,2021.0
00/10-02-076-08W6/0,TOURMALINE HZ VALHALLA 10-2-76-8,498676,0Y52,Precision Drilling Corporation,541,06 Jan 2021 05:47:00 AM,Grande Prairie,A573,Tourmaline Oil Corp.,,Drill To LD,2021-01-06,2076086,2076086,55.55600861,-119.1123032,1,1,2021.0
00/14-18-076-09W6/0,WHITECAP VALHALLA 14-18-76-9,498858,0Y52,Precision Drilling Corporation,540,06 Jan 2021 06:00:00 PM,Grande Prairie,A5BE,Whitecap Resources Inc.,,Drill To LD,2021-01-06,18076096,18076096,55.58505027,-119.3708633,1,1,2021.0
00/09-33-076-13W6/0,AVN HZ PCOUPES 9-33-76-13,499005,A0KC,Horizon Drilling Inc.,30,05 Jan 2021 07:45:00 PM,Grande Prairie,0TD9,Advantage Oil & Gas Ltd.,,Drill To LD,2021-01-06,33076136,33076136,55.62858077,-119.939754,1,1,2021.0
06/01-11-077-05W4/0,MEG DE10I HARDY 1-11-77-5,490971,0Y55,Akita Drilling Ltd.,25,06 Jan 2021 04:15:00 PM,Bonnyville,0Z9C,MEG Energy Corp.,,Resumption,2021-01-06,11077054,11077054,55.65716303,-110.6527301,1,1,2021.0
03/07-36-078-13W6/0,BIR 14-6 HZ 103 PCOUPES 7-36-78-13,499050,0Y52,Precision Drilling Corporation,226,05 Jan 2021 08:00:00 PM,Grande Prairie,A12R,Birchcliff Energy Ltd.,,Set Surface,2021-01-06,36078136,36078136,55.80309179,-119.8621707,1,1,2021.0
00/14-29-079-24W4/0,CRESTWYND HZ PELICAN 14-29-79-24,499147,0Y52,Precision Drilling Corporation,187,06 Jan 2021 05:03:00 AM,Bonnyville,A7MT,Crestwynd Exploration Ltd.,,Drill To LD,2021-01-06,29079244,29079244,55.87529992,-113.7121495,1,1,2021.0
AB/05-29-093-09W4/0,SYNCRUDE 054N01 5-29-93-9,497165,0Y80,Boart Longyear Canada,47,06 Jan 2021 12:30:00 AM,Bonnyville,0362,Syncrude Canada Ltd.,,Drill To LD,2021-01-06,29093094,29093094,57.09722471,-111.4008968,1,1,2021.0
AB/05-29-093-09W4/0,SYNCRUDE 054N01 5-29-93-9,497165,0Y80,Boart Longyear Canada,41,06 Jan 2021 01:00:00 AM,Bonnyville,0362,Syncrude Canada Ltd.,,Drill To LD,2021-01-06,29093094,29093094,57.09722471,-111.4008968,1,1,2021.0
AB/16-25-093-10W4/0,SYNCRUDE 035N01 16-25-93-10,497103,A1YG,Big Country Drilling Ltd.,6,05 Jan 2021 06:00:00 PM,Bonnyville,0362,Syncrude Canada Ltd.,,Drill To LD,2021-01-06,25093104,25093104,57.0972359,-111.4545294,1,1,2021.0
09/04-02-095-06W4/2,SUNCOR P4N11B FIREBAG 4-2-95-6,466961,0Y52,Precision Drilling Corporation,151,06 Jan 2021 01:15:00 PM,Bonnyville,0054,Suncor Energy Inc.,,Resumption,2021-01-06,2095064,2095064,57.21366247,-110.8464522,1,1,2021.0
W0/03-15-095-06W4/0,SUNCOR P131P2 FIREBAG 3-15-95-6,497854,A6PR,Nabors Drilling Canada Limited,102,05 Jan 2021 09:30:00 PM,Bonnyville,0054,Suncor Energy Inc.,,Drill To LD,2021-01-06,15095064,15095064,57.24275071,-110.8735294,1,1,2021.0
F1/16-35-034-08W4/0,TAC 4-12 HZ 1F1 PROVOST 16-35-34-8,498909,0GE9,Tempco Drilling Company Inc.,5,16 Jan 2021 11:00:00 PM,Wainwright,A5TT,Tamarack Acquisition Corp.,,Drill To LD,2021-01-17,35034084,35034084,51.96184194,-111.0209957,2,1,2021.0
02/14-36-036-04W4/0,SURGE ENERGY 102 PROVOST 14-36-36-4,498901,0Y52,Precision Drilling Corporation,145,17 Jan 2021 10:06:00 AM,Wainwright,0YK4,Surge Energy Inc.,,Drill To LD,2021-01-17,36036044,36036044,52.13565307,-110.4336541,2,1,2021.0
00/01-36-040-10W5/0,TQN FERRIER 1-36-40-10,499157,A0KC,Horizon Drilling Inc.,19,17 Jan 2021 08:40:00 AM,Red Deer,A2TG,TAQA North Ltd.,,Drill To LD,2021-01-17,36040105,36040105,52.48671732,-115.2969517,2,1,2021.0
00/03-12-041-11W5/0,PEYTO CHAMBERS 3-12-41-11,498510,A08C,Savanna Drilling Corp.,616,17 Jan 2021 04:00:00 AM,Red Deer,0YA2,Peyto Exploration & Development Corp.,,Drill To LD,2021-01-17,12041115,12041115,52.51580493,-115.4408462,2,1,2021.0
00/16-28-048-25W4/0,NEP LEDUC-WB 16-28-48-25,499180,A6EC,Twilight Drilling Ltd.,2,16 Jan 2021 10:15:00 PM,St. Albert,A637,NEP Canada ULC,,Drill To LD,2021-01-17,28048254,28048254,53.17057658,-113.5860655,2,1,2021.0
00/03-31-058-01W6/0,TOURMALINE HZ SMOKY 3-31-58-1,498278,0Z41,Ensign Drilling Inc.,39,17 Jan 2021 04:28:00 PM,Drayton Valley,A573,Tourmaline Oil Corp.,,Resumption,2021-01-17,31058016,31058016,54.0576426,-118.1241572,2,1,2021.0
02/01-15-066-05W6/0,PARA HZ 102 KARR 1-15-66-5,495221,A08C,Savanna Drilling Corp.,689,17 Jan 2021 03:33:00 PM,Grande Prairie,0AW4,Paramount Resources Ltd.,,Set Surface,2021-01-17,15066056,15066056,54.71259132,-118.654949,2,1,2021.0
00/03-07-067-08W6/0,WHITECAP WAPITI 3-7-67-8,498932,0Y52,Precision Drilling Corporation,403,17 Jan 2021 02:44:00 PM,Grande Prairie,A5BE,Whitecap Resources Inc.,,Drill To LD,2021-01-17,7067086,7067086,54.78511785,-119.1956964,2,1,2021.0
00/13-01-074-26W4/0,SPL 13-36 HZ MARTENH 13-1-74-26,499036,0Y52,Precision Drilling Corporation,147,17 Jan 2021 05:00:00 PM,St. Albert,A7GR,Spur Petroleum Ltd.,,Drill To LD,2021-01-17,1074264,1074264,55.38091529,-113.8528184,2,1,2021.0
02/16-04-075-25W4/0,DELTASTREAM MARTENH 16-4-75-25,498832,A2CL,Komat Drilling Ltd.,3,17 Jan 2021 04:15:00 AM,St. Albert,A6YA,Deltastream Energy Corporation,,Set Surface,2021-01-17,4075254,4075254,55.46818763,-113.8097717,2,1,2021.0
AE/08-30-076-05W4/0,CVE A8-30 C8 HARDY 8-30-76-5,498398,0Y52,Precision Drilling Corporation,254,16 Jan 2021 09:57:00 PM,Bonnyville,A5D4,Cenovus Energy Inc.,,Drill To LD,2021-01-17,30076054,30076054,55.61362802,-110.7562541,2,1,2021.0
10/02-16-076-06W4/0,CVE G05P06 LEISMER 2-16-76-6,499056,0Z41,Ensign Drilling Inc.,141,17 Jan 2021 05:30:00 AM,Bonnyville,A5D4,Cenovus Energy Inc.,,Set Surface,2021-01-17,16076064,16076064,55.58456271,-110.8597761,2,1,2021.0
09/04-29-077-05W4/0,MEG AH15P HARDY 4-29-77-5,498951,0Y55,Akita Drilling Ltd.,27,16 Jan 2021 09:30:00 PM,Bonnyville,0Z9C,MEG Energy Corp.,,Drill To LD,2021-01-17,29077054,29077054,55.70089651,-110.7303741,2,1,2021.0
00/02-07-077-13W6/0,AVN HZ PCOUPES 2-7-77-13,499000,A0KC,Horizon Drilling Inc.,30,16 Jan 2021 09:39:00 PM,Grande Prairie,0TD9,Advantage Oil & Gas Ltd.,,Drill To LD,2021-01-17,7077136,7077136,55.65765878,-119.991547,2,1,2021.0
02/13-13-079-12W6/0,BIR 5-7 HZ 102 PCOUPES 13-13-79-12,498987,0X84,Nabors Drilling Limited,77,17 Jan 2021 04:00:00 AM,Grande Prairie,A12R,Birchcliff Energy Ltd.,,Drill To LD,2021-01-17,13079126,13079126,55.84708672,-119.7231728,2,1,2021.0
02/06-12-088-21W4/0,CNUL WDW01 LIEGE 6-12-88-21,498502,0Y52,Precision Drilling Corporation,183,16 Jan 2021 06:00:00 PM,Bonnyville,A7K5,Canadian Natural Upgrading Limited,,Drill To LD,2021-01-17,12088214,12088214,56.61699407,-113.1955139,2,1,2021.0
AB/15-23-093-10W4/0,SYNCRUDE 061N01 15-23-93-10,497172,0Y80,Boart Longyear Canada,41,16 Jan 2021 11:00:00 PM,Bonnyville,0362,Syncrude Canada Ltd.,,Drill To LD,2021-01-17,23093104,23093104,57.08259286,-111.4814072,2,1,2021.0
AA/01-34-093-10W4/0,SYNCRUDE 29ROVCH194061L01 1-34-93-10,493238,0Y80,Boart Longyear Canada,47,17 Jan 2021 10:30:00 AM,Bonnyville,0362,Syncrude Canada Ltd.,,Drill To LD,2021-01-17,34093104,34093104,57.11171402,-111.5082104,2,1,2021.0
AA/07-34-093-10W4/0,SYNCRUDE 29ROVCH194048L01 7-34-93-10,493234,0Y80,Boart Longyear Canada,47,16 Jan 2021 07:30:00 PM,Bonnyville,0362,Syncrude Canada Ltd.,,Drill To LD,2021-01-17,34093104,34093104,57.11171402,-111.5082104,2,1,2021.0
02/12-08-022-17W4/0,TXNE 13D-9 HZ COUNTESS 12-8-22-17,497608,0Y52,Precision Drilling Corporation,239,11 Jan 2021 08:45:00 PM,Midnapore,A7NW,Torxen Energy Ltd.,,Drill To LD,2021-01-12,8022174,8022174,50.85586194,-112.3130471,2,1,2021.0
03/04-19-035-04W4/0,KARVE 103 HZ PROVOST 4-19-35-4,498589,A57H,Predator Drilling Inc.,9,12 Jan 2021 09:04:00 AM,Wainwright,A7BT,Karve Energy Inc.,,Set Surface,2021-01-12,19035044,19035044,52.01914293,-110.5527394,2,1,2021.0
00/14-36-036-04W4/0,SURGE ENERGY HZ PROVOST 14-36-36-4,498900,0Y52,Precision Drilling Corporation,145,12 Jan 2021 02:45:00 AM,Wainwright,0YK4,Surge Energy Inc.,,Resumption,2021-01-12,36036044,36036044,52.13565307,-110.4336541,2,1,2021.0
02/13-11-036-08W4/0,KARVE 102 HZ PROVOST 13-11-36-8,498864,0GE9,Tempco Drilling Company Inc.,8,11 Jan 2021 11:00:00 PM,Wainwright,A7BT,Karve Energy Inc.,,Resumption,2021-01-12,11036084,11036084,52.07754894,-111.0288283,2,1,2021.0
02/01-16-043-09W5/0,WINSLOW WILLGR 1-16-43-9,497003,A6EC,Twilight Drilling Ltd.,1,12 Jan 2021 12:00:00 AM,Red Deer,A172,Winslow Resources Inc.,,Drill To LD,2021-01-12,16043095,16043095,52.70523021,-115.2347046,2,1,2021.0
02/16-20-049-25W4/0,NEP HZ 102 LEDUC-WB 16-20-49-25,499142,0Z41,Ensign Drilling Inc.,32,12 Jan 2021 01:15:00 AM,St. Albert,A637,NEP Canada ULC,,Drill To LD,2021-01-12,20049254,20049254,53.24327428,-113.6105778,2,1,2021.0
00/01-06-059-01W6/0,TOURMALINE HZ SMOKY 1-6-59-1,498091,A6PR,Nabors Drilling Canada Limited,58,11 Jan 2021 08:03:00 PM,Drayton Valley,A573,Tourmaline Oil Corp.,,Set Surface,2021-01-12,6059016,6059016,54.07234405,-118.1252971,2,1,2021.0
00/12-08-063-20W4/0,CRESTWYND HZ NEWBRK 12-8-63-20,498911,A2CL,Komat Drilling Ltd.,3,12 Jan 2021 03:05:00 PM,St. Albert,A7MT,Crestwynd Exploration Ltd.,,Set Surface,2021-01-12,8063204,8063204,54.4344171,-112.9800087,2,1,2021.0
00/12-20-063-23W4/0,RHE 102 PERRY 12-20-63-23,498937,A1TW,Bonanza Drilling Inc.,4,12 Jan 2021 05:30:00 PM,St. Albert,A6W2,Rolling Hills Energy Ltd.,,Drill To LD,2021-01-12,20063234,20063234,54.46352046,-113.4336096,2,1,2021.0
00/11-15-064-06W6/0,7GEN HZ KAKWA 11-15-64-6,498924,0Y52,Precision Drilling Corporation,543,11 Jan 2021 10:15:00 PM,Grande Prairie,A54C,Seven Generations Energy Ltd.,,Drill To LD,2021-01-12,15064066,15064066,54.53806561,-118.8058884,2,1,2021.0
03/16-35-071-09W6/0,OVV HZ 103 WEMBLEY 16-35-71-9,498696,0Y52,Precision Drilling Corporation,535,12 Jan 2021 12:00:00 PM,Grande Prairie,0026,Ovintiv Canada ULC,,Drill To LD,2021-01-12,35071096,35071096,55.19235495,-119.2566215,2,1,2021.0
00/16-26-074-25W4/0,HWX MARTENH 16-26-74-25,498851,A08C,Savanna Drilling Corp.,437,11 Jan 2021 09:45:00 PM,St. Albert,A8DL,Headwater Exploration Inc.,,Drill To LD,2021-01-12,26074254,26074254,55.43911772,-113.7246581,2,1,2021.0
04/13-26-075-06W4/2,CVE J17P05 KIRBY 13-26-75-6,484725,0Y52,Precision Drilling Corporation,199,12 Jan 2021 04:01:00 AM,Bonnyville,A5D4,Cenovus Energy Inc.,,Resumption,2021-01-12,26075064,26075064,55.52637634,-110.8080171,2,1,2021.0
AE/02-30-076-05W4/0,CVE B7-30 C2 HARDY 2-30-76-5,498397,0Y52,Precision Drilling Corporation,144,12 Jan 2021 01:20:00 AM,Bonnyville,A5D4,Cenovus Energy Inc.,,Drill To LD,2021-01-12,30076054,30076054,55.61362802,-110.7562541,2,1,2021.0
07/01-16-076-06W4/0,CVE G05I01 LEISMER 1-16-76-6,498958,0Z41,Ensign Drilling Inc.,141,12 Jan 2021 02:33:00 PM,Bonnyville,A5D4,Cenovus Energy Inc.,,Set Surface,2021-01-12,16076064,16076064,55.58456271,-110.8597761,2,1,2021.0
00/04-20-082-11W6/0,RIDGEBACK HZ BONANZA 4-20-82-11,499193,0ZG2,Excalibur Drilling Ltd.,11,12 Jan 2021 03:30:00 AM,Grande Prairie,A7G2,Ridgeback Resources Inc.,,Drill To LD,2021-01-12,20082116,20082116,56.12340114,-119.6708423,2,1,2021.0
AC/14-19-093-09W4/0,SYNCRUDE 066N01 14-19-93-9,497177,A1YG,Big Country Drilling Ltd.,3,12 Jan 2021 01:00:00 PM,Bonnyville,0362,Syncrude Canada Ltd.,,Drill To LD,2021-01-12,19093094,19093094,57.08258595,-111.4277215,2,1,2021.0
AA/09-29-093-09W4/0,SYNCRUDE 29ROVCH194100L01 9-29-93-9,493250,A1YG,Big Country Drilling Ltd.,6,11 Jan 2021 11:30:00 PM,Bonnyville,0362,Syncrude Canada Ltd.,,Drill To LD,2021-01-12,29093094,29093094,57.09722471,-111.4008968,2,1,2021.0
AA/14-26-093-10W4/0,SYNCRUDE 29ROVCH194081L0 14-26-93-10,493244,0Y80,Boart Longyear Canada,41,12 Jan 2021 08:30:00 AM,Bonnyville,0362,Syncrude Canada Ltd.,,Drill To LD,2021-01-12,26093104,26093104,57.09722693,-111.4814114,2,1,2021.0
AA/09-34-093-10W4/0,SYNCRUDE 020N01 9-34-93-10,497072,0Y80,Boart Longyear Canada,47,12 Jan 2021 12:30:00 PM,Bonnyville,0362,Syncrude Canada Ltd.,,Drill To LD,2021-01-12,34093104,34093104,57.11171402,-111.5082104,2,1,2021.0
00/01-20-035-02W4/0,KARVE HZ PROVOST 1-20-35-2,499202,0GE9,Tempco Drilling Company Inc.,8,02 Feb 2021 04:45:00 PM,Wainwright,A7BT,Karve Energy Inc.,,Drill To LD,2021-02-02,20035024,20035024,52.01925683,-110.2434378,5,2,2021.0
03/05-16-068-06W6/0,PARA HZ 103 ELM 5-16-68-6,495314,A5DR,Fox Drilling Inc.,4,02 Feb 2021 07:56:00 AM,Grande Prairie,0AW4,Paramount Resources Ltd.,,Resumption,2021-02-02,16068066,16068066,54.88702818,-118.8396177,5,2,2021.0
AA/11-24-070-04W4/0,CVE D11 FISHER 11-24-70-4,498777,0Y52,Precision Drilling Corporation,254,02 Feb 2021 03:30:00 PM,Bonnyville,A5D4,Cenovus Energy Inc.,,Drill To LD,2021-02-02,24070044,24070044,55.07502764,-110.4633329,5,2,2021.0
02/03-15-070-08W6/0,NUVISTA 102 HZ B ELM 3-15-70-8,498625,A6PR,Nabors Drilling Canada Limited,79E,02 Feb 2021 12:00:00 PM,Grande Prairie,A0A7,NuVista Energy Ltd.,,Drill To LD,2021-02-02,15070086,15070086,55.06156831,-119.1196004,5,2,2021.0
04/08-24-076-07W5/0,TAC 9-23 HZ 104 NIPISI 8-24-76-7,499203,A2CL,Komat Drilling Ltd.,3,02 Feb 2021 12:45:00 PM,St. Albert,A5TT,Tamarack Acquisition Corp.,,Set Surface,2021-02-02,24076075,24076075,55.59935755,-114.9328907,5,2,2021.0
02/14-26-076-08W5/0,WOODCOTE2 102 NIPISI 14-26-76-8,499417,0Y52,Precision Drilling Corporation,116,31 Jan 2021 10:00:00 PM,St. Albert,A8H8,Woodcote Petroleum Inc.,,Drill To LD,2021-02-02,26076085,26076085,55.61404505,-115.113975,5,2,2021.0
AA/13-05-093-09W4/0,SYNCRUDE 128N01 13-5-93-9,497144,0Y80,Boart Longyear Canada,47,02 Feb 2021 05:00:00 AM,Bonnyville,0362,Syncrude Canada Ltd.,,Drill To LD,2021-02-02,5093094,5093094,57.03905993,-111.400909,5,2,2021.0
AB/08-07-093-09W4/0,SYNCRUDE 120N01 8-7-93-9,497127,0Y80,Boart Longyear Canada,41,02 Feb 2021 07:30:00 AM,Bonnyville,0362,Syncrude Canada Ltd.,,Drill To LD,2021-02-02,7093094,7093094,57.05350282,-111.4277301,5,2,2021.0
AB/06-17-093-09W4/0,SYNCRUDE 090N01 6-17-93-9,497087,0Y80,Boart Longyear Canada,37,02 Feb 2021 10:45:00 AM,Bonnyville,0362,Syncrude Canada Ltd.,,Drill To LD,2021-02-02,17093094,17093094,57.06814282,-111.4009048,5,2,2021.0
AB/15-20-093-09W4/0,SYNCRUDE 064N01 15-20-93-9,497175,0Y80,Boart Longyear Canada,32,02 Feb 2021 12:00:00 PM,Bonnyville,0362,Syncrude Canada Ltd.,,Drill To LD,2021-02-02,20093094,20093094,57.08259388,-111.4009027,5,2,2021.0
